{"station_locator_url":"http://www.afdc.energy.gov/afdc/locator/stations/","total_results":136,"station_counts":{"total":219,"fuels":{"E85":{"total":1},"ELEC":{"total":199,"stations":{"total":116}},"HY":{"total":0},"LNG":{"total":0},"BD":{"total":3},"CNG":{"total":3},"LPG":{"total":13}}},"fuel_stations":[{"access_days_time":"7:30am-5pm M-F","cards_accepted":"Cash M V","date_last_confirmed":"2017-03-03","expected_date":null,"fuel_type_code":"LPG","id":13343,"groups_with_access_code":"Public","open_date":null,"owner_type_code":"P","status_code":"E","station_name":"Northeastern Supply Co","station_phone":"207-496-3011","updated_at":"2017-03-03T18:51:56Z","geocode_status":"200-8","latitude":46.842162,"longitude":-68.009825,"city":"Caribou","intersection_directions":"1.5 miles north on SR 164 from Junction of US 1.","plus4":null,"state":"ME","street_address":"441 Main St","zip":"04736","bd_blends":null,"e85_blender_pump":null,"ev_connector_types":null,"ev_dc_fast_num":null,"ev_level1_evse_num":null,"ev_level2_evse_num":null,"ev_network":null,"ev_network_web":null,"ev_other_evse":null,"hy_status_link":null,"lpg_primary":false,"ng_fill_type_code":null,"ng_psi":null,"ng_vehicle_class":null},{"access_days_time":"7am-7pm M-Th and Sat, 7am-8pm F, 9am-5pm Sun","cards_accepted":"Cash A D M V","date_last_confirmed":"2017-03-03","expected_date":null,"fuel_type_code":"LPG","id":19191,"groups_with_access_code":"Public","open_date":null,"owner_type_code":"P","status_code":"E","station_name":"U-Haul","station_phone":"207-282-5964","updated_at":"2017-03-03T19:44:07Z","geocode_status":"GPS","latitude":43.50786,"longitude":-70.436456,"city":"Saco","intersection_directions":"I-95 to Saco exit, 0.25 mile on right","plus4":null,"state":"ME","street_address":"492 Main St","zip":"04072","bd_blends":null,"e85_blender_pump":null,"ev_connector_types":null,"ev_dc_fast_num":null,"ev_level1_evse_num":null,"ev_level2_evse_num":null,"ev_network":null,"ev_network_web":null,"ev_other_evse":null,"hy_status_link":null,"lpg_primary":false,"ng_fill_type_code":null,"ng_psi":null,"ng_vehicle_class":null},{"access_days_time":"8am-6pm daily","cards_accepted":"Cash Checks D M V","date_last_confirmed":"2017-02-01","expected_date":null,"fuel_type_code":"LPG","id":21526,"groups_with_access_code":"Public","open_date":null,"owner_type_code":"P","status_code":"E","station_name":"Propane Inc","station_phone":"207-945-5673","updated_at":"2017-02-01T20:13:24Z","geocode_status":"200-8","latitude":44.8182971,"longitude":-68.7745363,"city":"Bangor","intersection_directions":"Interstate 95 S, Exit 48, left onto Broadway, on right across from Mainway","plus4":null,"state":"ME","street_address":"490 Broadway","zip":"04401","bd_blends":null,"e85_blender_pump":null,"ev_connector_types":null,"ev_dc_fast_num":null,"ev_level1_evse_num":null,"ev_level2_evse_num":null,"ev_network":null,"ev_network_web":null,"ev_other_evse":null,"hy_status_link":null,"lpg_primary":false,"ng_fill_type_code":null,"ng_psi":null,"ng_vehicle_class":null},{"access_days_time":null,"cards_accepted":null,"date_last_confirmed":"2016-03-07","expected_date":null,"fuel_type_code":"CNG","id":28623,"groups_with_access_code":"Private - Government only","open_date":"2006-03-15","owner_type_code":"LG","status_code":"E","station_name":"Greater Portland Transit District","station_phone":null,"updated_at":"2017-02-21T21:15:15Z","geocode_status":"200-9","latitude":43.6475687,"longitude":-70.2778894,"city":"Portland","intersection_directions":"I-95 N to I-295 N via exit 44 toward South Portland / Downtown Portland, US - 1 N exit 4 - Portland Waterfront, stay straight to go onto US-1N Blue Star Memorial Highway, follow through to Saint John Street","plus4":null,"state":"ME","street_address":"114 Valley St","zip":"04102","bd_blends":null,"e85_blender_pump":null,"ev_connector_types":null,"ev_dc_fast_num":null,"ev_level1_evse_num":null,"ev_level2_evse_num":null,"ev_network":null,"ev_network_web":null,"ev_other_evse":null,"hy_status_link":null,"lpg_primary":null,"ng_fill_type_code":"Q","ng_psi":"3000 3600","ng_vehicle_class":"HD"},{"access_days_time":"5am-9pm M-F, 6am-9pm Sat, 6am-8pm Sun","cards_accepted":"Cash A D M V Voyager","date_last_confirmed":"2017-02-01","expected_date":null,"fuel_type_code":"BD","id":33202,"groups_with_access_code":"Public","open_date":"2008-07-15","owner_type_code":"P","status_code":"E","station_name":"Maritime Farms","station_phone":"207-236-4597","updated_at":"2017-02-01T20:06:25Z","geocode_status":"200-9","latitude":44.1989691,"longitude":-69.0782153,"city":"Rockport","intersection_directions":"Pump is on the Camden side","plus4":null,"state":"ME","street_address":"20 Commercial St","zip":"04856","bd_blends":"B20","e85_blender_pump":null,"ev_connector_types":null,"ev_dc_fast_num":null,"ev_level1_evse_num":null,"ev_level2_evse_num":null,"ev_network":null,"ev_network_web":null,"ev_other_evse":null,"hy_status_link":null,"lpg_primary":null,"ng_fill_type_code":null,"ng_psi":null,"ng_vehicle_class":null},{"access_days_time":"8am-5pm M-F and upon request outside business hours","cards_accepted":"Cash Checks M V","date_last_confirmed":"2017-02-01","expected_date":null,"fuel_type_code":"BD","id":35010,"groups_with_access_code":"Public","open_date":"2009-09-01","owner_type_code":"P","status_code":"E","station_name":"Maine Standard Biofuels","station_phone":"207-878-3001  207-221-6180","updated_at":"2017-02-01T20:07:51Z","geocode_status":"200-8","latitude":43.6919018,"longitude":-70.3282963,"city":"Portland","intersection_directions":null,"plus4":null,"state":"ME","street_address":"51 Ingersoll Dr","zip":"04103","bd_blends":"B99","e85_blender_pump":null,"ev_connector_types":null,"ev_dc_fast_num":null,"ev_level1_evse_num":null,"ev_level2_evse_num":null,"ev_network":null,"ev_network_web":null,"ev_other_evse":null,"hy_status_link":null,"lpg_primary":null,"ng_fill_type_code":null,"ng_psi":null,"ng_vehicle_class":null},{"access_days_time":"8am-5pm M-F, 8am-4pm Sat, 9am-12pm Sun","cards_accepted":"Cash Checks A D M V","date_last_confirmed":"2017-02-01","expected_date":null,"fuel_type_code":"LPG","id":40823,"groups_with_access_code":"Public","open_date":null,"owner_type_code":"P","status_code":"E","station_name":"Surry General Store","station_phone":"207-664-6100","updated_at":"2017-02-01T20:06:29Z","geocode_status":"GPS","latitude":44.474143,"longitude":-68.525344,"city":"Surry","intersection_directions":"Route 172","plus4":null,"state":"ME","street_address":"345 Blue Hill Rd","zip":"04684","bd_blends":null,"e85_blender_pump":null,"ev_connector_types":null,"ev_dc_fast_num":null,"ev_level1_evse_num":null,"ev_level2_evse_num":null,"ev_network":null,"ev_network_web":null,"ev_other_evse":null,"hy_status_link":null,"lpg_primary":false,"ng_fill_type_code":null,"ng_psi":null,"ng_vehicle_class":null},{"access_days_time":null,"cards_accepted":null,"date_last_confirmed":"2017-01-11","expected_date":null,"fuel_type_code":"E85","id":41733,"groups_with_access_code":"TEMPORARILY UNAVAILABLE (Private)","open_date":null,"owner_type_code":"FG","status_code":"T","station_name":"Veterans Affairs - Maine Healthcare System - Togus","station_phone":null,"updated_at":"2017-01-18T02:32:19Z","geocode_status":"GPS","latitude":44.296869,"longitude":-69.724097,"city":"Augusta","intersection_directions":null,"plus4":null,"state":"ME","street_address":"1 VA Center","zip":"04330","bd_blends":null,"e85_blender_pump":false,"ev_connector_types":null,"ev_dc_fast_num":null,"ev_level1_evse_num":null,"ev_level2_evse_num":null,"ev_network":null,"ev_network_web":null,"ev_other_evse":null,"hy_status_link":null,"lpg_primary":null,"ng_fill_type_code":null,"ng_psi":null,"ng_vehicle_class":null,"federal_agency":{"id":19,"name":"Department of Veterans Affairs"}},{"access_days_time":null,"cards_accepted":null,"date_last_confirmed":"2017-03-03","expected_date":null,"fuel_type_code":"LPG","id":42853,"groups_with_access_code":"Private","open_date":null,"owner_type_code":"LG","status_code":"E","station_name":"Maine School Administrative District #6","station_phone":null,"updated_at":"2017-03-03T19:48:23Z","geocode_status":"200-8","latitude":43.6907019,"longitude":-70.6028257,"city":"Standish","intersection_directions":null,"plus4":null,"state":"ME","street_address":"715 Bonny Eagle Rd","zip":"04084","bd_blends":null,"e85_blender_pump":null,"ev_connector_types":null,"ev_dc_fast_num":null,"ev_level1_evse_num":null,"ev_level2_evse_num":null,"ev_network":null,"ev_network_web":null,"ev_other_evse":null,"hy_status_link":null,"lpg_primary":false,"ng_fill_type_code":null,"ng_psi":null,"ng_vehicle_class":null},{"access_days_time":"Dealership business hours","cards_accepted":null,"date_last_confirmed":"2016-03-07","expected_date":null,"fuel_type_code":"ELEC","id":44280,"groups_with_access_code":"Public - Call ahead","open_date":"2011-11-30","owner_type_code":"P","status_code":"E","station_name":"Lee Nissan of Auburn","station_phone":"207-783-2291","updated_at":"2017-02-17T20:02:16Z","geocode_status":"200-8","latitude":44.129233,"longitude":-70.22363,"city":"Auburn","intersection_directions":null,"plus4":null,"state":"ME","street_address":"793 Center St","zip":"04210","bd_blends":null,"e85_blender_pump":null,"ev_connector_types":["J1772","CHADEMO"],"ev_dc_fast_num":1,"ev_level1_evse_num":null,"ev_level2_evse_num":2,"ev_network":null,"ev_network_web":null,"ev_other_evse":null,"hy_status_link":null,"lpg_primary":null,"ng_fill_type_code":null,"ng_psi":null,"ng_vehicle_class":null},{"access_days_time":null,"cards_accepted":null,"date_last_confirmed":"2016-03-07","expected_date":null,"fuel_type_code":"ELEC","id":44281,"groups_with_access_code":"Private","open_date":"2011-11-30","owner_type_code":"P","status_code":"E","station_name":"Lee Nissan of Auburn","station_phone":"207-783-2291","updated_at":"2017-02-17T20:02:16Z","geocode_status":"200-8","latitude":44.129233,"longitude":-70.22363,"city":"Auburn","intersection_directions":null,"plus4":null,"state":"ME","street_address":"793 Center St","zip":"04210","bd_blends":null,"e85_blender_pump":null,"ev_connector_types":["J1772"],"ev_dc_fast_num":null,"ev_level1_evse_num":null,"ev_level2_evse_num":1,"ev_network":null,"ev_network_web":null,"ev_other_evse":null,"hy_status_link":null,"lpg_primary":null,"ng_fill_type_code":null,"ng_psi":null,"ng_vehicle_class":null},{"access_days_time":"Dealership business hours","cards_accepted":null,"date_last_confirmed":"2017-03-03","expected_date":null,"fuel_type_code":"ELEC","id":46971,"groups_with_access_code":"Public - Call ahead","open_date":"2012-05-30","owner_type_code":"P","status_code":"E","station_name":"Lee Toyota","station_phone":"207-729-3358","updated_at":"2017-03-03T19:49:52Z","geocode_status":"200-8","latitude":43.938016,"longitude":-69.964093,"city":"Topsham","intersection_directions":null,"plus4":null,"state":"ME","street_address":"115 Main St","zip":"04086","bd_blends":null,"e85_blender_pump":null,"ev_connector_types":["J1772"],"ev_dc_fast_num":null,"ev_level1_evse_num":null,"ev_level2_evse_num":1,"ev_network":null,"ev_network_web":null,"ev_other_evse":null,"hy_status_link":null,"lpg_primary":null,"ng_fill_type_code":null,"ng_psi":null,"ng_vehicle_class":null},{"access_days_time":"9am-5pm M-F","cards_accepted":null,"date_last_confirmed":"2017-02-01","expected_date":null,"fuel_type_code":"ELEC","id":48404,"groups_with_access_code":"Public - Call ahead","open_date":"2012-06-20","owner_type_code":"P","status_code":"E","station_name":"ReVision Energy","station_phone":"207-221-6342","updated_at":"2017-02-01T20:07:37Z","geocode_status":"GPS","latitude":43.686832,"longitude":-70.260117,"city":"Portland","intersection_directions":null,"plus4":null,"state":"ME","street_address":"142 Presumpscot St","zip":"04103","bd_blends":null,"e85_blender_pump":null,"ev_connector_types":["J1772"],"ev_dc_fast_num":null,"ev_level1_evse_num":null,"ev_level2_evse_num":2,"ev_network":null,"ev_network_web":null,"ev_other_evse":null,"hy_status_link":null,"lpg_primary":null,"ng_fill_type_code":null,"ng_psi":null,"ng_vehicle_class":null},{"access_days_time":null,"cards_accepted":null,"date_last_confirmed":"2017-01-11","expected_date":null,"fuel_type_code":"BD","id":48463,"groups_with_access_code":"Private","open_date":"2012-08-01","owner_type_code":"FG","status_code":"E","station_name":"Acadia National Park - Bar Harbor Fuel System","station_phone":null,"updated_at":"2017-01-18T01:54:41Z","geocode_status":"GPS","latitude":44.398072,"longitude":-68.283333,"city":"Bar Harbor","intersection_directions":"Park HQ","plus4":null,"state":"ME","street_address":"Rt 233 McFarland Hill","zip":"04609","bd_blends":"B20","e85_blender_pump":null,"ev_connector_types":null,"ev_dc_fast_num":null,"ev_level1_evse_num":null,"ev_level2_evse_num":null,"ev_network":null,"ev_network_web":null,"ev_other_evse":null,"hy_status_link":null,"lpg_primary":null,"ng_fill_type_code":null,"ng_psi":null,"ng_vehicle_class":null,"federal_agency":{"id":16,"name":"Department of the Interior"}},{"access_days_time":null,"cards_accepted":null,"date_last_confirmed":"2017-01-11","expected_date":null,"fuel_type_code":"LPG","id":48750,"groups_with_access_code":"Private","open_date":null,"owner_type_code":"FG","status_code":"E","station_name":"Acadia - Schoodic Site Fuel System","station_phone":null,"updated_at":"2017-01-18T02:30:50Z","geocode_status":"GPS","latitude":44.337133,"longitude":-68.060289,"city":"Winter Harbor","intersection_directions":"SERC Campus","plus4":null,"state":"ME","street_address":"126 Acadia Dr","zip":"04693","bd_blends":null,"e85_blender_pump":null,"ev_connector_types":null,"ev_dc_fast_num":null,"ev_level1_evse_num":null,"ev_level2_evse_num":null,"ev_network":null,"ev_network_web":null,"ev_other_evse":null,"hy_status_link":null,"lpg_primary":false,"ng_fill_type_code":null,"ng_psi":null,"ng_vehicle_class":null,"federal_agency":{"id":16,"name":"Department of the Interior"}},{"access_days_time":"Dealership business hours","cards_accepted":null,"date_last_confirmed":"2016-03-07","expected_date":null,"fuel_type_code":"ELEC","id":49813,"groups_with_access_code":"Public","open_date":"2012-10-25","owner_type_code":"P","status_code":"E","station_name":"Charlie's Nissan","station_phone":"207-622-7327","updated_at":"2017-02-17T20:02:06Z","geocode_status":"200-8","latitude":44.3199627,"longitude":-69.8224295,"city":"Augusta","intersection_directions":null,"plus4":null,"state":"ME","street_address":"465 Western Ave","zip":"04330","bd_blends":null,"e85_blender_pump":null,"ev_connector_types":["J1772"],"ev_dc_fast_num":null,"ev_level1_evse_num":null,"ev_level2_evse_num":1,"ev_network":null,"ev_network_web":null,"ev_other_evse":null,"hy_status_link":null,"lpg_primary":null,"ng_fill_type_code":null,"ng_psi":null,"ng_vehicle_class":null},{"access_days_time":null,"cards_accepted":null,"date_last_confirmed":"2016-03-07","expected_date":null,"fuel_type_code":"ELEC","id":49814,"groups_with_access_code":"Private","open_date":"2012-10-25","owner_type_code":"P","status_code":"E","station_name":"Charlie's Nissan","station_phone":"207-622-7327","updated_at":"2017-02-17T20:02:06Z","geocode_status":"200-8","latitude":44.3199627,"longitude":-69.8224295,"city":"Augusta","intersection_directions":null,"plus4":null,"state":"ME","street_address":"465 Western Ave","zip":"04330","bd_blends":null,"e85_blender_pump":null,"ev_connector_types":["J1772"],"ev_dc_fast_num":null,"ev_level1_evse_num":null,"ev_level2_evse_num":1,"ev_network":null,"ev_network_web":null,"ev_other_evse":null,"hy_status_link":null,"lpg_primary":null,"ng_fill_type_code":null,"ng_psi":null,"ng_vehicle_class":null},{"access_days_time":"Dealership business hours","cards_accepted":null,"date_last_confirmed":"2016-03-07","expected_date":null,"fuel_type_code":"ELEC","id":49815,"groups_with_access_code":"Public","open_date":"2012-10-25","owner_type_code":"P","status_code":"E","station_name":"Darling's Nissan","station_phone":"207-941-1460","updated_at":"2017-02-17T19:57:44Z","geocode_status":"200-8","latitude":44.8280869,"longitude":-68.7451498,"city":"Bangor","intersection_directions":null,"plus4":null,"state":"ME","street_address":"114 Sylvan Rd","zip":"04401","bd_blends":null,"e85_blender_pump":null,"ev_connector_types":["J1772","CHADEMO"],"ev_dc_fast_num":1,"ev_level1_evse_num":null,"ev_level2_evse_num":1,"ev_network":null,"ev_network_web":null,"ev_other_evse":null,"hy_status_link":null,"lpg_primary":null,"ng_fill_type_code":null,"ng_psi":null,"ng_vehicle_class":null},{"access_days_time":null,"cards_accepted":null,"date_last_confirmed":"2016-03-07","expected_date":null,"fuel_type_code":"ELEC","id":49816,"groups_with_access_code":"Private","open_date":"2012-10-25","owner_type_code":"P","status_code":"E","station_name":"Darling's Nissan","station_phone":"207-941-1460","updated_at":"2017-02-17T19:57:44Z","geocode_status":"200-8","latitude":44.8280869,"longitude":-68.7451498,"city":"Bangor","intersection_directions":null,"plus4":null,"state":"ME","street_address":"114 Sylvan Rd","zip":"04401","bd_blends":null,"e85_blender_pump":null,"ev_connector_types":["J1772"],"ev_dc_fast_num":null,"ev_level1_evse_num":null,"ev_level2_evse_num":1,"ev_network":null,"ev_network_web":null,"ev_other_evse":null,"hy_status_link":null,"lpg_primary":null,"ng_fill_type_code":null,"ng_psi":null,"ng_vehicle_class":null},{"access_days_time":"8am-5pm daily; college vehicles have priority use overnight","cards_accepted":null,"date_last_confirmed":"2017-02-01","expected_date":null,"fuel_type_code":"ELEC","id":49817,"groups_with_access_code":"Public - Call ahead","open_date":"2012-08-01","owner_type_code":"P","status_code":"E","station_name":"College of the Atlantic","station_phone":"207-288-5015","updated_at":"2017-02-01T20:07:47Z","geocode_status":"GPS","latitude":44.395824,"longitude":-68.223106,"city":"Bar Harbor","intersection_directions":null,"plus4":null,"state":"ME","street_address":"105 Eden St","zip":"04609","bd_blends":null,"e85_blender_pump":null,"ev_connector_types":["J1772"],"ev_dc_fast_num":null,"ev_level1_evse_num":null,"ev_level2_evse_num":1,"ev_network":null,"ev_network_web":null,"ev_other_evse":null,"hy_status_link":null,"lpg_primary":null,"ng_fill_type_code":null,"ng_psi":null,"ng_vehicle_class":null},{"access_days_time":"Employee use only","cards_accepted":null,"date_last_confirmed":"2017-03-03","expected_date":null,"fuel_type_code":"ELEC","id":49818,"groups_with_access_code":"Private","open_date":"2012-09-17","owner_type_code":"P","status_code":"E","station_name":"TideSmart","station_phone":null,"updated_at":"2017-03-03T19:54:14Z","geocode_status":"200-9","latitude":43.7418886,"longitude":-70.2195823,"city":"Falmouth","intersection_directions":null,"plus4":null,"state":"ME","street_address":"380 Route 1","zip":"04105","bd_blends":null,"e85_blender_pump":null,"ev_connector_types":["J1772"],"ev_dc_fast_num":null,"ev_level1_evse_num":null,"ev_level2_evse_num":2,"ev_network":null,"ev_network_web":null,"ev_other_evse":null,"hy_status_link":null,"lpg_primary":null,"ng_fill_type_code":null,"ng_psi":null,"ng_vehicle_class":null},{"access_days_time":"Dealership business hours","cards_accepted":null,"date_last_confirmed":"2016-03-07","expected_date":null,"fuel_type_code":"ELEC","id":49819,"groups_with_access_code":"Public","open_date":"2012-10-25","owner_type_code":"P","status_code":"E","station_name":"Bill Dodge Nissan of Saco","station_phone":"207-283-3999","updated_at":"2017-02-17T19:57:42Z","geocode_status":"200-8","latitude":43.541517,"longitude":-70.424711,"city":"Saco","intersection_directions":null,"plus4":null,"state":"ME","street_address":"852 Portland Rd","zip":"04072","bd_blends":null,"e85_blender_pump":null,"ev_connector_types":["J1772"],"ev_dc_fast_num":null,"ev_level1_evse_num":null,"ev_level2_evse_num":1,"ev_network":null,"ev_network_web":null,"ev_other_evse":null,"hy_status_link":null,"lpg_primary":null,"ng_fill_type_code":null,"ng_psi":null,"ng_vehicle_class":null},{"access_days_time":null,"cards_accepted":null,"date_last_confirmed":"2016-03-07","expected_date":null,"fuel_type_code":"ELEC","id":49820,"groups_with_access_code":"Private","open_date":"2012-10-25","owner_type_code":"P","status_code":"E","station_name":"Bill Dodge Nissan of Saco","station_phone":"207-283-3999","updated_at":"2017-02-17T19:57:42Z","geocode_status":"200-8","latitude":43.541517,"longitude":-70.424711,"city":"Saco","intersection_directions":null,"plus4":null,"state":"ME","street_address":"852 Portland Rd","zip":"04072","bd_blends":null,"e85_blender_pump":null,"ev_connector_types":["J1772"],"ev_dc_fast_num":null,"ev_level1_evse_num":null,"ev_level2_evse_num":1,"ev_network":null,"ev_network_web":null,"ev_other_evse":null,"hy_status_link":null,"lpg_primary":null,"ng_fill_type_code":null,"ng_psi":null,"ng_vehicle_class":null},{"access_days_time":null,"cards_accepted":null,"date_last_confirmed":"2016-03-07","expected_date":null,"fuel_type_code":"ELEC","id":49822,"groups_with_access_code":"Private","open_date":"2012-10-25","owner_type_code":"P","status_code":"E","station_name":"Marc Motors","station_phone":"207-324-3454","updated_at":"2017-02-17T20:02:00Z","geocode_status":"GPS","latitude":43.415889,"longitude":-70.748236,"city":"Sanford","intersection_directions":null,"plus4":null,"state":"ME","street_address":"1357 Main St","zip":"04073","bd_blends":null,"e85_blender_pump":null,"ev_connector_types":["J1772"],"ev_dc_fast_num":null,"ev_level1_evse_num":null,"ev_level2_evse_num":1,"ev_network":null,"ev_network_web":null,"ev_other_evse":null,"hy_status_link":null,"lpg_primary":null,"ng_fill_type_code":null,"ng_psi":null,"ng_vehicle_class":null},{"access_days_time":"Dealership business hours","cards_accepted":null,"date_last_confirmed":"2016-03-07","expected_date":null,"fuel_type_code":"ELEC","id":49823,"groups_with_access_code":"Public","open_date":"2012-10-25","owner_type_code":"P","status_code":"E","station_name":"Berlin City Nissan","station_phone":"207-774-1429","updated_at":"2017-02-17T20:02:03Z","geocode_status":"200-8","latitude":43.6415902,"longitude":-70.3336471,"city":"South Portland","intersection_directions":null,"plus4":null,"state":"ME","street_address":"227 Maine Mall Rd","zip":"04106","bd_blends":null,"e85_blender_pump":null,"ev_connector_types":["J1772"],"ev_dc_fast_num":null,"ev_level1_evse_num":null,"ev_level2_evse_num":1,"ev_network":null,"ev_network_web":null,"ev_other_evse":null,"hy_status_link":null,"lpg_primary":null,"ng_fill_type_code":null,"ng_psi":null,"ng_vehicle_class":null},{"access_days_time":null,"cards_accepted":null,"date_last_confirmed":"2016-03-07","expected_date":null,"fuel_type_code":"ELEC","id":49824,"groups_with_access_code":"Private","open_date":"2012-10-25","owner_type_code":"P","status_code":"E","station_name":"Berlin City Nissan","station_phone":"207-774-1429","updated_at":"2017-02-17T20:02:03Z","geocode_status":"200-8","latitude":43.6415902,"longitude":-70.3336471,"city":"South Portland","intersection_directions":null,"plus4":null,"state":"ME","street_address":"227 Maine Mall Rd","zip":"04106","bd_blends":null,"e85_blender_pump":null,"ev_connector_types":["J1772"],"ev_dc_fast_num":null,"ev_level1_evse_num":null,"ev_level2_evse_num":1,"ev_network":null,"ev_network_web":null,"ev_other_evse":null,"hy_status_link":null,"lpg_primary":null,"ng_fill_type_code":null,"ng_psi":null,"ng_vehicle_class":null},{"access_days_time":"Dealership business hours","cards_accepted":null,"date_last_confirmed":"2016-03-07","expected_date":null,"fuel_type_code":"ELEC","id":49825,"groups_with_access_code":"Public","open_date":"2012-10-25","owner_type_code":"P","status_code":"E","station_name":"Lee Nissan of Topsham","station_phone":"207-837-6512","updated_at":"2017-02-17T20:15:42Z","geocode_status":"200-8","latitude":43.936596,"longitude":-69.965658,"city":"Topsham","intersection_directions":null,"plus4":null,"state":"ME","street_address":"107 Main St","zip":"04086","bd_blends":null,"e85_blender_pump":null,"ev_connector_types":["J1772","CHADEMO"],"ev_dc_fast_num":1,"ev_level1_evse_num":null,"ev_level2_evse_num":1,"ev_network":null,"ev_network_web":null,"ev_other_evse":null,"hy_status_link":null,"lpg_primary":null,"ng_fill_type_code":null,"ng_psi":null,"ng_vehicle_class":null},{"access_days_time":null,"cards_accepted":null,"date_last_confirmed":"2016-03-07","expected_date":null,"fuel_type_code":"ELEC","id":49826,"groups_with_access_code":"Private","open_date":"2012-10-25","owner_type_code":"P","status_code":"E","station_name":"Lee Nissan of Topsham","station_phone":"207-837-6512","updated_at":"2017-02-17T20:15:42Z","geocode_status":"200-8","latitude":43.936596,"longitude":-69.965658,"city":"Topsham","intersection_directions":null,"plus4":null,"state":"ME","street_address":"107 Main St","zip":"04086","bd_blends":null,"e85_blender_pump":null,"ev_connector_types":["J1772"],"ev_dc_fast_num":null,"ev_level1_evse_num":null,"ev_level2_evse_num":1,"ev_network":null,"ev_network_web":null,"ev_other_evse":null,"hy_status_link":null,"lpg_primary":null,"ng_fill_type_code":null,"ng_psi":null,"ng_vehicle_class":null},{"access_days_time":"24 hours daily","cards_accepted":null,"date_last_confirmed":"2017-03-03","expected_date":null,"fuel_type_code":"ELEC","id":50834,"groups_with_access_code":"Public","open_date":"2012-12-25","owner_type_code":"P","status_code":"E","station_name":"Mount Abram Ski Area","station_phone":"207-875-5000","updated_at":"2017-03-03T19:44:39Z","geocode_status":"GPS","latitude":44.379914,"longitude":-70.70744,"city":"Greenwood","intersection_directions":null,"plus4":null,"state":"ME","street_address":"308 Howe Hill Rd","zip":"04255","bd_blends":null,"e85_blender_pump":null,"ev_connector_types":["J1772"],"ev_dc_fast_num":null,"ev_level1_evse_num":null,"ev_level2_evse_num":2,"ev_network":null,"ev_network_web":null,"ev_other_evse":null,"hy_status_link":null,"lpg_primary":null,"ng_fill_type_code":null,"ng_psi":null,"ng_vehicle_class":null},{"access_days_time":"7am-7pm M-F, 7am-6pm Sat, 8am-4pm Sun","cards_accepted":"Cash D M V","date_last_confirmed":"2017-03-03","expected_date":null,"fuel_type_code":"LPG","id":51751,"groups_with_access_code":"Public","open_date":null,"owner_type_code":"P","status_code":"E","station_name":"Gray True Value","station_phone":"207-657-3502","updated_at":"2017-03-03T18:34:01Z","geocode_status":"200-8","latitude":43.8976088,"longitude":-70.3435121,"city":"Gray","intersection_directions":null,"plus4":null,"state":"ME","street_address":"97 Shaker Rd","zip":"04039","bd_blends":null,"e85_blender_pump":null,"ev_connector_types":null,"ev_dc_fast_num":null,"ev_level1_evse_num":null,"ev_level2_evse_num":null,"ev_network":null,"ev_network_web":null,"ev_other_evse":null,"hy_status_link":null,"lpg_primary":false,"ng_fill_type_code":null,"ng_psi":null,"ng_vehicle_class":null},{"access_days_time":"24 hours daily","cards_accepted":"Cash Checks A D M V Voyager Wright_Exp","date_last_confirmed":"2017-02-01","expected_date":null,"fuel_type_code":"LPG","id":52325,"groups_with_access_code":"Public","open_date":null,"owner_type_code":"P","status_code":"E","station_name":"RH Foster Energy - Hilltop on the Run","station_phone":"207-667-8601","updated_at":"2017-02-01T20:12:29Z","geocode_status":"GPS","latitude":44.522425,"longitude":-68.395762,"city":"Ellsworth","intersection_directions":null,"plus4":null,"state":"ME","street_address":"372 High St","zip":"04605","bd_blends":null,"e85_blender_pump":null,"ev_connector_types":null,"ev_dc_fast_num":null,"ev_level1_evse_num":null,"ev_level2_evse_num":null,"ev_network":null,"ev_network_web":null,"ev_other_evse":null,"hy_status_link":null,"lpg_primary":true,"ng_fill_type_code":null,"ng_psi":null,"ng_vehicle_class":null},{"access_days_time":"24 hours daily; call 207-262-3429 to arrange for training and required card key","cards_accepted":"A D M V FuelMan Voyager Wright_Exp","date_last_confirmed":"2017-02-01","expected_date":null,"fuel_type_code":"LPG","id":52872,"groups_with_access_code":"Public - Credit card at all times","open_date":null,"owner_type_code":"P","status_code":"E","station_name":"RH Foster Energy - Foster Kardlock","station_phone":"207-262-3429","updated_at":"2017-02-01T20:06:38Z","geocode_status":"GPS","latitude":44.780209,"longitude":-68.798913,"city":"Hampden","intersection_directions":null,"plus4":null,"state":"ME","street_address":"110 Mecaw Rd","zip":"04444","bd_blends":null,"e85_blender_pump":null,"ev_connector_types":null,"ev_dc_fast_num":null,"ev_level1_evse_num":null,"ev_level2_evse_num":null,"ev_network":null,"ev_network_web":null,"ev_other_evse":null,"hy_status_link":null,"lpg_primary":true,"ng_fill_type_code":null,"ng_psi":null,"ng_vehicle_class":null},{"access_days_time":"Station is available for emergency fueling; call 207-941-9595 for access","cards_accepted":null,"date_last_confirmed":"2017-03-03","expected_date":null,"fuel_type_code":"CNG","id":61679,"groups_with_access_code":"Private","open_date":"2012-12-15","owner_type_code":"P","status_code":"E","station_name":"Bangor Natural Gas ","station_phone":"207-941-9595","updated_at":"2017-03-03T18:45:55Z","geocode_status":"200-8","latitude":44.8094139,"longitude":-68.8046418,"city":"Bangor","intersection_directions":null,"plus4":null,"state":"ME","street_address":"498 Maine Ave","zip":"04401","bd_blends":null,"e85_blender_pump":null,"ev_connector_types":null,"ev_dc_fast_num":null,"ev_level1_evse_num":null,"ev_level2_evse_num":null,"ev_network":null,"ev_network_web":null,"ev_other_evse":null,"hy_status_link":null,"lpg_primary":null,"ng_fill_type_code":"T","ng_psi":"3600","ng_vehicle_class":"MD"},{"access_days_time":"Garage business hours; pay lot","cards_accepted":null,"date_last_confirmed":"2017-03-03","expected_date":null,"fuel_type_code":"ELEC","id":62278,"groups_with_access_code":"Public","open_date":"2014-06-10","owner_type_code":"P","status_code":"E","station_name":"Fore Street Parking Garage","station_phone":"207-772-7738","updated_at":"2017-03-03T18:49:09Z","geocode_status":"GPS","latitude":43.656318,"longitude":-70.25417,"city":"Portland","intersection_directions":null,"plus4":null,"state":"ME","street_address":"427 Fore St","zip":"04101","bd_blends":null,"e85_blender_pump":null,"ev_connector_types":["J1772","CHADEMO"],"ev_dc_fast_num":1,"ev_level1_evse_num":null,"ev_level2_evse_num":1,"ev_network":null,"ev_network_web":null,"ev_other_evse":null,"hy_status_link":null,"lpg_primary":null,"ng_fill_type_code":null,"ng_psi":null,"ng_vehicle_class":null},{"access_days_time":"24 hours daily","cards_accepted":null,"date_last_confirmed":"2017-03-03","expected_date":null,"fuel_type_code":"ELEC","id":62497,"groups_with_access_code":"Public","open_date":"2014-06-01","owner_type_code":"LG","status_code":"E","station_name":"Kennebunk Light & Power","station_phone":"207-985-3311","updated_at":"2017-03-03T19:44:27Z","geocode_status":"GPS","latitude":43.383413,"longitude":-70.539497,"city":"Kennebunk","intersection_directions":null,"plus4":null,"state":"ME","street_address":"4 Factory Pasture Ln","zip":"04043","bd_blends":null,"e85_blender_pump":null,"ev_connector_types":["J1772"],"ev_dc_fast_num":null,"ev_level1_evse_num":null,"ev_level2_evse_num":1,"ev_network":null,"ev_network_web":null,"ev_other_evse":null,"hy_status_link":null,"lpg_primary":null,"ng_fill_type_code":null,"ng_psi":null,"ng_vehicle_class":null},{"access_days_time":"24 hours daily","cards_accepted":null,"date_last_confirmed":"2017-03-03","expected_date":null,"fuel_type_code":"ELEC","id":62498,"groups_with_access_code":"Public","open_date":"2014-06-01","owner_type_code":"LG","status_code":"E","station_name":"Arundel Chamber of Commerce","station_phone":"207-967-0857","updated_at":"2017-03-03T19:49:54Z","geocode_status":"200-8","latitude":43.3845835,"longitude":-70.5412708,"city":"Kennebunk","intersection_directions":null,"plus4":null,"state":"ME","street_address":"16 Water St","zip":"04043","bd_blends":null,"e85_blender_pump":null,"ev_connector_types":["J1772"],"ev_dc_fast_num":null,"ev_level1_evse_num":null,"ev_level2_evse_num":1,"ev_network":null,"ev_network_web":null,"ev_other_evse":null,"hy_status_link":null,"lpg_primary":null,"ng_fill_type_code":null,"ng_psi":null,"ng_vehicle_class":null},{"access_days_time":"24 hours daily","cards_accepted":"A D M V FuelMan Voyager Wright_Exp Comdata","date_last_confirmed":"2016-10-04","expected_date":"2017-04-01","fuel_type_code":"CNG","id":62555,"groups_with_access_code":"PLANNED - not yet accessible (Public - Credit card at all times)","open_date":null,"owner_type_code":"P","status_code":"P","station_name":"American Natural Gas LLC","station_phone":"866-264-6220","updated_at":"2017-06-16T13:47:54Z","geocode_status":"200-8","latitude":43.64954,"longitude":-70.366624,"city":"Westbrook","intersection_directions":"Intersection at Ledgeview Drive","plus4":null,"state":"ME","street_address":"594 County Rd","zip":"04092","bd_blends":null,"e85_blender_pump":null,"ev_connector_types":null,"ev_dc_fast_num":null,"ev_level1_evse_num":null,"ev_level2_evse_num":null,"ev_network":null,"ev_network_web":null,"ev_other_evse":null,"hy_status_link":null,"lpg_primary":null,"ng_fill_type_code":"Q","ng_psi":"3600","ng_vehicle_class":"HD"},{"access_days_time":"24 hours daily","cards_accepted":null,"date_last_confirmed":"2017-03-03","expected_date":null,"fuel_type_code":"ELEC","id":62640,"groups_with_access_code":"Public","open_date":"2014-07-20","owner_type_code":"LG","status_code":"E","station_name":"Deering Street Parking Lot","station_phone":"207-739-2101","updated_at":"2017-03-03T18:43:49Z","geocode_status":"GPS","latitude":44.214173,"longitude":-70.542028,"city":"Norway","intersection_directions":null,"plus4":null,"state":"ME","street_address":"10 Deering St","zip":"04268","bd_blends":null,"e85_blender_pump":null,"ev_connector_types":["J1772","NEMA1450"],"ev_dc_fast_num":null,"ev_level1_evse_num":1,"ev_level2_evse_num":1,"ev_network":null,"ev_network_web":null,"ev_other_evse":null,"hy_status_link":null,"lpg_primary":null,"ng_fill_type_code":null,"ng_psi":null,"ng_vehicle_class":null},{"access_days_time":"24 hours daily","cards_accepted":null,"date_last_confirmed":"2016-06-30","expected_date":null,"fuel_type_code":"ELEC","id":62642,"groups_with_access_code":"Public","open_date":"2014-07-24","owner_type_code":"LG","status_code":"E","station_name":"City of South Portland - Community Center","station_phone":"207-767-7650","updated_at":"2017-04-03T21:03:05Z","geocode_status":"200-8","latitude":43.6224018,"longitude":-70.2700014,"city":"South Portland","intersection_directions":null,"plus4":null,"state":"ME","street_address":"21 Nelson Rd","zip":"04106","bd_blends":null,"e85_blender_pump":null,"ev_connector_types":["J1772","CHADEMO"],"ev_dc_fast_num":1,"ev_level1_evse_num":null,"ev_level2_evse_num":2,"ev_network":null,"ev_network_web":null,"ev_other_evse":null,"hy_status_link":null,"lpg_primary":null,"ng_fill_type_code":null,"ng_psi":null,"ng_vehicle_class":null},{"access_days_time":null,"cards_accepted":null,"date_last_confirmed":"2017-01-11","expected_date":null,"fuel_type_code":"ELEC","id":62685,"groups_with_access_code":"Private","open_date":"2014-06-30","owner_type_code":"FG","status_code":"E","station_name":"Acadia - Schoodic Site Fuel System","station_phone":null,"updated_at":"2017-01-18T02:30:50Z","geocode_status":"GPS","latitude":44.337133,"longitude":-68.060289,"city":"Winter Harbor","intersection_directions":"SERC Campus","plus4":null,"state":"ME","street_address":"126 Acadia Dr","zip":"04693","bd_blends":null,"e85_blender_pump":null,"ev_connector_types":["J1772"],"ev_dc_fast_num":null,"ev_level1_evse_num":null,"ev_level2_evse_num":1,"ev_network":null,"ev_network_web":null,"ev_other_evse":null,"hy_status_link":null,"lpg_primary":null,"ng_fill_type_code":null,"ng_psi":null,"ng_vehicle_class":null,"federal_agency":{"id":16,"name":"Department of the Interior"}},{"access_days_time":"Dawn to dusk daily","cards_accepted":null,"date_last_confirmed":"2017-02-01","expected_date":null,"fuel_type_code":"ELEC","id":62734,"groups_with_access_code":"Public - Call ahead","open_date":"2014-06-05","owner_type_code":"P","status_code":"E","station_name":"Maine Organic Farmers and Gardeners Association","station_phone":"207-568-4142","updated_at":"2017-02-01T20:07:33Z","geocode_status":"GPS","latitude":44.590314,"longitude":-69.289139,"city":"Unity","intersection_directions":null,"plus4":null,"state":"ME","street_address":"294 Crosby Brook Rd","zip":"04988","bd_blends":null,"e85_blender_pump":null,"ev_connector_types":["J1772"],"ev_dc_fast_num":null,"ev_level1_evse_num":null,"ev_level2_evse_num":2,"ev_network":null,"ev_network_web":null,"ev_other_evse":null,"hy_status_link":null,"lpg_primary":null,"ng_fill_type_code":null,"ng_psi":null,"ng_vehicle_class":null},{"access_days_time":"24 hours daily","cards_accepted":null,"date_last_confirmed":"2017-05-04","expected_date":null,"fuel_type_code":"ELEC","id":62735,"groups_with_access_code":"Public","open_date":"2013-12-01","owner_type_code":"P","status_code":"E","station_name":"Thomas College","station_phone":"207-859-1111","updated_at":"2017-05-04T13:21:22Z","geocode_status":"200-8","latitude":44.5248738,"longitude":-69.6639823,"city":"Waterville","intersection_directions":"Located in employee parking lot","plus4":null,"state":"ME","street_address":"180 W River Rd","zip":"04901","bd_blends":null,"e85_blender_pump":null,"ev_connector_types":["NEMA520","J1772"],"ev_dc_fast_num":null,"ev_level1_evse_num":2,"ev_level2_evse_num":2,"ev_network":null,"ev_network_web":null,"ev_other_evse":null,"hy_status_link":null,"lpg_primary":null,"ng_fill_type_code":null,"ng_psi":null,"ng_vehicle_class":null},{"access_days_time":"7am-7pm M-Th and Sat, 7am-8pm F, 7am-5pm Sun","cards_accepted":"Cash A D M V","date_last_confirmed":"2017-03-03","expected_date":null,"fuel_type_code":"LPG","id":62740,"groups_with_access_code":"Public","open_date":null,"owner_type_code":"P","status_code":"E","station_name":"U-Haul","station_phone":"207-774-0758","updated_at":"2017-03-03T19:49:27Z","geocode_status":"200-8","latitude":43.670522,"longitude":-70.257538,"city":"Portland","intersection_directions":null,"plus4":null,"state":"ME","street_address":"411 Marginal Way","zip":"04101","bd_blends":null,"e85_blender_pump":null,"ev_connector_types":null,"ev_dc_fast_num":null,"ev_level1_evse_num":null,"ev_level2_evse_num":null,"ev_network":null,"ev_network_web":null,"ev_other_evse":null,"hy_status_link":null,"lpg_primary":false,"ng_fill_type_code":null,"ng_psi":null,"ng_vehicle_class":null},{"access_days_time":"24 hours daily; Ford customer use only","cards_accepted":null,"date_last_confirmed":"2017-03-03","expected_date":null,"fuel_type_code":"ELEC","id":62831,"groups_with_access_code":"Public - Call ahead","open_date":"2014-06-01","owner_type_code":"P","status_code":"E","station_name":"Arundel Ford","station_phone":"800-889-7171","updated_at":"2017-03-03T19:48:36Z","geocode_status":"200-8","latitude":43.4179243,"longitude":-70.5176926,"city":"Arundel","intersection_directions":null,"plus4":null,"state":"ME","street_address":"1561 Portland Rd","zip":"04046","bd_blends":null,"e85_blender_pump":null,"ev_connector_types":["J1772"],"ev_dc_fast_num":null,"ev_level1_evse_num":null,"ev_level2_evse_num":1,"ev_network":null,"ev_network_web":null,"ev_other_evse":null,"hy_status_link":null,"lpg_primary":null,"ng_fill_type_code":null,"ng_psi":null,"ng_vehicle_class":null},{"access_days_time":"24 hours daily; maximum stay of 2 hours","cards_accepted":null,"date_last_confirmed":"2017-01-11","expected_date":null,"fuel_type_code":"ELEC","id":62986,"groups_with_access_code":"Public","open_date":"2014-12-01","owner_type_code":"LG","status_code":"E","station_name":"City of South Portland - City Hall","station_phone":"207-767-7606","updated_at":"2017-04-03T21:03:06Z","geocode_status":"GPS","latitude":43.636857,"longitude":-70.252164,"city":"South Portland","intersection_directions":null,"plus4":null,"state":"ME","street_address":"41 Thomas St","zip":"04106","bd_blends":null,"e85_blender_pump":null,"ev_connector_types":["J1772"],"ev_dc_fast_num":null,"ev_level1_evse_num":null,"ev_level2_evse_num":2,"ev_network":null,"ev_network_web":null,"ev_other_evse":null,"hy_status_link":null,"lpg_primary":null,"ng_fill_type_code":null,"ng_psi":null,"ng_vehicle_class":null},{"access_days_time":"Dealership business hours","cards_accepted":null,"date_last_confirmed":"2017-03-03","expected_date":null,"fuel_type_code":"ELEC","id":63744,"groups_with_access_code":"Public","open_date":"2014-06-01","owner_type_code":"P","status_code":"E","station_name":"Yankee Ford","station_phone":"207-799-5591","updated_at":"2017-03-03T18:37:32Z","geocode_status":"200-8","latitude":43.636925,"longitude":-70.25664,"city":"South Portland","intersection_directions":null,"plus4":null,"state":"ME","street_address":"165 Waterman Dr","zip":"04106","bd_blends":null,"e85_blender_pump":null,"ev_connector_types":["J1772"],"ev_dc_fast_num":null,"ev_level1_evse_num":null,"ev_level2_evse_num":2,"ev_network":null,"ev_network_web":null,"ev_other_evse":null,"hy_status_link":null,"lpg_primary":null,"ng_fill_type_code":null,"ng_psi":null,"ng_vehicle_class":null},{"access_days_time":"7:30am-5pm M-F","cards_accepted":"Cash Checks A D M V CFN","date_last_confirmed":"2017-03-03","expected_date":null,"fuel_type_code":"LPG","id":63965,"groups_with_access_code":"Public","open_date":null,"owner_type_code":"P","status_code":"E","station_name":"Bob's Cash Fuel Inc","station_phone":"207-696-3040","updated_at":"2017-03-03T19:51:31Z","geocode_status":"GPS","latitude":44.800429,"longitude":-69.853698,"city":"Madison","intersection_directions":null,"plus4":null,"state":"ME","street_address":"424 Main St","zip":"04950","bd_blends":null,"e85_blender_pump":null,"ev_connector_types":null,"ev_dc_fast_num":null,"ev_level1_evse_num":null,"ev_level2_evse_num":null,"ev_network":null,"ev_network_web":null,"ev_other_evse":null,"hy_status_link":null,"lpg_primary":true,"ng_fill_type_code":null,"ng_psi":null,"ng_vehicle_class":null},{"access_days_time":null,"cards_accepted":null,"date_last_confirmed":"2017-03-03","expected_date":null,"fuel_type_code":"LPG","id":64381,"groups_with_access_code":"Private","open_date":null,"owner_type_code":"P","status_code":"E","station_name":"Ledgemere - STA Bus Facility","station_phone":null,"updated_at":"2017-03-03T19:40:11Z","geocode_status":"200-8","latitude":43.4063891,"longitude":-70.7122344,"city":"Sanford","intersection_directions":null,"plus4":null,"state":"ME","street_address":"100 Cyro Dr","zip":"04073","bd_blends":null,"e85_blender_pump":null,"ev_connector_types":null,"ev_dc_fast_num":null,"ev_level1_evse_num":null,"ev_level2_evse_num":null,"ev_network":null,"ev_network_web":null,"ev_other_evse":null,"hy_status_link":null,"lpg_primary":null,"ng_fill_type_code":null,"ng_psi":null,"ng_vehicle_class":null},{"access_days_time":"24 hours daily","cards_accepted":null,"date_last_confirmed":"2017-02-01","expected_date":null,"fuel_type_code":"ELEC","id":64698,"groups_with_access_code":"Public","open_date":"2015-01-15","owner_type_code":"P","status_code":"E","station_name":"Unity College","station_phone":"207-509-7145","updated_at":"2017-02-01T20:07:31Z","geocode_status":"GPS","latitude":44.602068,"longitude":-69.330971,"city":"Unity","intersection_directions":null,"plus4":null,"state":"ME","street_address":"42 Murdock Dr","zip":"04988","bd_blends":null,"e85_blender_pump":null,"ev_connector_types":["J1772"],"ev_dc_fast_num":null,"ev_level1_evse_num":null,"ev_level2_evse_num":1,"ev_network":null,"ev_network_web":null,"ev_other_evse":null,"hy_status_link":null,"lpg_primary":null,"ng_fill_type_code":null,"ng_psi":null,"ng_vehicle_class":null},{"access_days_time":"24 hours daily; free for guests and customers","cards_accepted":null,"date_last_confirmed":"2017-02-01","expected_date":null,"fuel_type_code":"ELEC","id":64926,"groups_with_access_code":"Public - Call ahead","open_date":"2014-07-01","owner_type_code":"P","status_code":"E","station_name":"Nonatum Resort","station_phone":"207-967-4050","updated_at":"2017-02-01T20:07:52Z","geocode_status":"200-8","latitude":43.3525815,"longitude":-70.4732057,"city":"Kennebunkport","intersection_directions":null,"plus4":null,"state":"ME","street_address":"95 Ocean Ave","zip":"04046","bd_blends":null,"e85_blender_pump":null,"ev_connector_types":["TESLA","J1772"],"ev_dc_fast_num":null,"ev_level1_evse_num":null,"ev_level2_evse_num":3,"ev_network":"Tesla","ev_network_web":"http://www.teslamotors.com/supercharger","ev_other_evse":null,"hy_status_link":null,"lpg_primary":null,"ng_fill_type_code":null,"ng_psi":null,"ng_vehicle_class":null},{"access_days_time":"24 hours daily","cards_accepted":null,"date_last_confirmed":"2016-12-01","expected_date":null,"fuel_type_code":"ELEC","id":64927,"groups_with_access_code":"Public - Call ahead","open_date":"2014-07-01","owner_type_code":"P","status_code":"E","station_name":"Beachmere Inn","station_phone":"207-646-2021","updated_at":"2017-01-18T01:52:38Z","geocode_status":"GPS","latitude":43.244741,"longitude":-70.593313,"city":"Ogunquit","intersection_directions":null,"plus4":null,"state":"ME","street_address":"62 Beachmere Pl","zip":"03907","bd_blends":null,"e85_blender_pump":null,"ev_connector_types":["TESLA","J1772"],"ev_dc_fast_num":null,"ev_level1_evse_num":null,"ev_level2_evse_num":3,"ev_network":"Tesla","ev_network_web":"http://www.teslamotors.com/supercharger","ev_other_evse":null,"hy_status_link":null,"lpg_primary":null,"ng_fill_type_code":null,"ng_psi":null,"ng_vehicle_class":null},{"access_days_time":"24 hours daily","cards_accepted":null,"date_last_confirmed":"2017-03-03","expected_date":null,"fuel_type_code":"ELEC","id":64929,"groups_with_access_code":"Public - Call ahead","open_date":"2014-06-01","owner_type_code":"P","status_code":"E","station_name":"Horizon Solutions","station_phone":"207-797-9466","updated_at":"2017-03-03T19:44:29Z","geocode_status":"200-8","latitude":43.5902491,"longitude":-70.3631876,"city":"Scarborough","intersection_directions":null,"plus4":null,"state":"ME","street_address":"32 Haigis Pkwy","zip":"04074","bd_blends":null,"e85_blender_pump":null,"ev_connector_types":["J1772"],"ev_dc_fast_num":null,"ev_level1_evse_num":null,"ev_level2_evse_num":2,"ev_network":null,"ev_network_web":null,"ev_other_evse":null,"hy_status_link":null,"lpg_primary":null,"ng_fill_type_code":null,"ng_psi":null,"ng_vehicle_class":null},{"access_days_time":"Dealership business hours","cards_accepted":null,"date_last_confirmed":"2016-12-01","expected_date":null,"fuel_type_code":"ELEC","id":64930,"groups_with_access_code":"Public - Call ahead","open_date":"2014-11-01","owner_type_code":"P","status_code":"E","station_name":"Morong Falmouth Dealership","station_phone":"207-781-4020","updated_at":"2017-02-27T15:02:03Z","geocode_status":"GPS","latitude":43.715981,"longitude":-70.232951,"city":"Falmouth","intersection_directions":null,"plus4":null,"state":"ME","street_address":"187 US Route 1","zip":"04105","bd_blends":null,"e85_blender_pump":null,"ev_connector_types":["J1772"],"ev_dc_fast_num":null,"ev_level1_evse_num":null,"ev_level2_evse_num":4,"ev_network":null,"ev_network_web":null,"ev_other_evse":null,"hy_status_link":null,"lpg_primary":null,"ng_fill_type_code":null,"ng_psi":null,"ng_vehicle_class":null},{"access_days_time":"24 hours daily; donations accepted","cards_accepted":null,"date_last_confirmed":"2017-03-03","expected_date":null,"fuel_type_code":"ELEC","id":65411,"groups_with_access_code":"Public","open_date":"2015-01-20","owner_type_code":"P","status_code":"E","station_name":"Casco Community Center","station_phone":"207-627-4515 x5","updated_at":"2017-03-03T19:44:30Z","geocode_status":"200-8","latitude":44.00445,"longitude":-70.5228,"city":"Casco","intersection_directions":null,"plus4":null,"state":"ME","street_address":"940 Meadow Rd","zip":"04015","bd_blends":null,"e85_blender_pump":null,"ev_connector_types":["J1772"],"ev_dc_fast_num":null,"ev_level1_evse_num":null,"ev_level2_evse_num":1,"ev_network":null,"ev_network_web":null,"ev_other_evse":null,"hy_status_link":null,"lpg_primary":null,"ng_fill_type_code":null,"ng_psi":null,"ng_vehicle_class":null},{"access_days_time":"24 hours daily","cards_accepted":null,"date_last_confirmed":"2017-03-03","expected_date":null,"fuel_type_code":"ELEC","id":65412,"groups_with_access_code":"Public","open_date":"2014-06-01","owner_type_code":"LG","status_code":"E","station_name":"Standish Town Hall","station_phone":"207-642-3461","updated_at":"2017-03-03T19:49:47Z","geocode_status":"GPS","latitude":43.744763,"longitude":-70.540302,"city":"Standish","intersection_directions":null,"plus4":null,"state":"ME","street_address":"175 NE Rd","zip":"04054","bd_blends":null,"e85_blender_pump":null,"ev_connector_types":["J1772"],"ev_dc_fast_num":null,"ev_level1_evse_num":null,"ev_level2_evse_num":1,"ev_network":null,"ev_network_web":null,"ev_other_evse":null,"hy_status_link":null,"lpg_primary":null,"ng_fill_type_code":null,"ng_psi":null,"ng_vehicle_class":null},{"access_days_time":"8am-4:30pm M-F","cards_accepted":null,"date_last_confirmed":"2016-12-01","expected_date":null,"fuel_type_code":"ELEC","id":65443,"groups_with_access_code":"Public","open_date":"2015-03-01","owner_type_code":"LG","status_code":"E","station_name":"City of South Portland - Planning & Development","station_phone":"207-767-7602","updated_at":"2017-04-03T21:03:03Z","geocode_status":"200-8","latitude":43.6252009,"longitude":-70.2500397,"city":"South Portland","intersection_directions":null,"plus4":null,"state":"ME","street_address":"496 Ocean St","zip":"04106","bd_blends":null,"e85_blender_pump":null,"ev_connector_types":["J1772"],"ev_dc_fast_num":null,"ev_level1_evse_num":null,"ev_level2_evse_num":1,"ev_network":null,"ev_network_web":null,"ev_other_evse":null,"hy_status_link":null,"lpg_primary":null,"ng_fill_type_code":null,"ng_psi":null,"ng_vehicle_class":null},{"access_days_time":"24 hours daily; for guest use only","cards_accepted":null,"date_last_confirmed":"2017-03-03","expected_date":null,"fuel_type_code":"ELEC","id":67132,"groups_with_access_code":"Public - Call ahead","open_date":"2015-05-15","owner_type_code":"P","status_code":"E","station_name":"Sebasco Harbor Resort","station_phone":"207-389-1161","updated_at":"2017-03-03T19:44:34Z","geocode_status":"GPS","latitude":43.766889,"longitude":-69.861111,"city":"Phippsburg","intersection_directions":null,"plus4":null,"state":"ME","street_address":"29 Kenyon Rd","zip":"04562","bd_blends":null,"e85_blender_pump":null,"ev_connector_types":["J1772"],"ev_dc_fast_num":null,"ev_level1_evse_num":null,"ev_level2_evse_num":1,"ev_network":null,"ev_network_web":null,"ev_other_evse":null,"hy_status_link":null,"lpg_primary":null,"ng_fill_type_code":null,"ng_psi":null,"ng_vehicle_class":null},{"access_days_time":"24 hours daily; priority for guest use","cards_accepted":null,"date_last_confirmed":"2016-12-01","expected_date":null,"fuel_type_code":"ELEC","id":67237,"groups_with_access_code":"Public - Call ahead","open_date":"2015-05-01","owner_type_code":"P","status_code":"E","station_name":"Brewster House Bed & Breakfast","station_phone":"207-865-4121  877-798-3752","updated_at":"2017-01-18T02:50:21Z","geocode_status":"GPS","latitude":43.861709,"longitude":-70.100197,"city":"Freeport","intersection_directions":null,"plus4":null,"state":"ME","street_address":"180 Main St","zip":"04032","bd_blends":null,"e85_blender_pump":null,"ev_connector_types":["TESLA","J1772"],"ev_dc_fast_num":null,"ev_level1_evse_num":null,"ev_level2_evse_num":2,"ev_network":"Tesla","ev_network_web":"http://www.teslamotors.com/supercharger","ev_other_evse":null,"hy_status_link":null,"lpg_primary":null,"ng_fill_type_code":null,"ng_psi":null,"ng_vehicle_class":null},{"access_days_time":"8am-8pm daily; available to non-guests for a $10 fee","cards_accepted":null,"date_last_confirmed":"2016-12-01","expected_date":null,"fuel_type_code":"ELEC","id":67238,"groups_with_access_code":"Public","open_date":"2015-05-01","owner_type_code":"P","status_code":"E","station_name":"Newcastle Inn","station_phone":"207-563-5685  877-798-3752","updated_at":"2017-01-18T02:49:26Z","geocode_status":"GPS","latitude":44.030925,"longitude":-69.542575,"city":"Newcastle","intersection_directions":null,"plus4":null,"state":"ME","street_address":"60 River Rd","zip":"04553","bd_blends":null,"e85_blender_pump":null,"ev_connector_types":["TESLA","J1772"],"ev_dc_fast_num":null,"ev_level1_evse_num":null,"ev_level2_evse_num":2,"ev_network":"Tesla","ev_network_web":"http://www.teslamotors.com/supercharger","ev_other_evse":null,"hy_status_link":null,"lpg_primary":null,"ng_fill_type_code":null,"ng_psi":null,"ng_vehicle_class":null},{"access_days_time":"24 hours daily; for Tesla guest use only","cards_accepted":null,"date_last_confirmed":"2016-03-07","expected_date":null,"fuel_type_code":"ELEC","id":67239,"groups_with_access_code":"Public - Call ahead","open_date":"2015-05-01","owner_type_code":"P","status_code":"E","station_name":"Wolf Cove Inn - Tesla","station_phone":"207-998-4976  877-798-3752","updated_at":"2017-01-18T00:50:59Z","geocode_status":"200-8","latitude":44.0584385,"longitude":-70.4256569,"city":"Poland","intersection_directions":null,"plus4":null,"state":"ME","street_address":"5 Jordan Shore Dr","zip":"04274","bd_blends":null,"e85_blender_pump":null,"ev_connector_types":["TESLA"],"ev_dc_fast_num":null,"ev_level1_evse_num":null,"ev_level2_evse_num":1,"ev_network":"Tesla","ev_network_web":"http://www.teslamotors.com/supercharger","ev_other_evse":null,"hy_status_link":null,"lpg_primary":null,"ng_fill_type_code":null,"ng_psi":null,"ng_vehicle_class":null},{"access_days_time":"24 hours daily; for Tesla guest use only","cards_accepted":null,"date_last_confirmed":"2016-03-07","expected_date":null,"fuel_type_code":"ELEC","id":67240,"groups_with_access_code":"Public - Call ahead","open_date":"2015-05-01","owner_type_code":"P","status_code":"E","station_name":"Yachtsman Lodge & Marina - Tesla","station_phone":"207-967-2511  877-798-3752","updated_at":"2017-01-18T01:28:08Z","geocode_status":"200-8","latitude":43.3571986,"longitude":-70.4743118,"city":"Kennebunkport","intersection_directions":null,"plus4":null,"state":"ME","street_address":"59 Ocean Ave","zip":"04046","bd_blends":null,"e85_blender_pump":null,"ev_connector_types":["TESLA"],"ev_dc_fast_num":null,"ev_level1_evse_num":null,"ev_level2_evse_num":2,"ev_network":"Tesla","ev_network_web":"http://www.teslamotors.com/supercharger","ev_other_evse":null,"hy_status_link":null,"lpg_primary":null,"ng_fill_type_code":null,"ng_psi":null,"ng_vehicle_class":null},{"access_days_time":"24 hours daily","cards_accepted":null,"date_last_confirmed":"2017-03-03","expected_date":null,"fuel_type_code":"ELEC","id":67350,"groups_with_access_code":"Public","open_date":"2015-04-01","owner_type_code":"LG","status_code":"E","station_name":"Greater Portland Council of Governments","station_phone":"207-774-9891 x229","updated_at":"2017-03-03T19:44:43Z","geocode_status":"GPS","latitude":43.679417,"longitude":-70.257818,"city":"Portland","intersection_directions":null,"plus4":null,"state":"ME","street_address":"970 Baxter Blvd","zip":"04101","bd_blends":null,"e85_blender_pump":null,"ev_connector_types":["J1772"],"ev_dc_fast_num":null,"ev_level1_evse_num":null,"ev_level2_evse_num":2,"ev_network":null,"ev_network_web":null,"ev_other_evse":null,"hy_status_link":null,"lpg_primary":null,"ng_fill_type_code":null,"ng_psi":null,"ng_vehicle_class":null},{"access_days_time":"7am-7pm M-Th and Sat, 7am-8pm F, 9am-5pm Sun","cards_accepted":"Cash A D M V","date_last_confirmed":"2017-03-03","expected_date":null,"fuel_type_code":"LPG","id":67537,"groups_with_access_code":"Public","open_date":null,"owner_type_code":"P","status_code":"E","station_name":"U-Haul","station_phone":"207-873-6171","updated_at":"2017-03-03T19:41:42Z","geocode_status":"200-9","latitude":44.5481848,"longitude":-69.6350311,"city":"Waterville","intersection_directions":null,"plus4":null,"state":"ME","street_address":"34 Elm St","zip":"04901","bd_blends":null,"e85_blender_pump":null,"ev_connector_types":null,"ev_dc_fast_num":null,"ev_level1_evse_num":null,"ev_level2_evse_num":null,"ev_network":null,"ev_network_web":null,"ev_other_evse":null,"hy_status_link":null,"lpg_primary":false,"ng_fill_type_code":null,"ng_psi":null,"ng_vehicle_class":null},{"access_days_time":"24 hours daily; free for hotel guest use only; for public use in emergency only","cards_accepted":null,"date_last_confirmed":"2017-03-03","expected_date":null,"fuel_type_code":"ELEC","id":68002,"groups_with_access_code":"Public - Call ahead","open_date":"2015-06-01","owner_type_code":"P","status_code":"E","station_name":"Ocean Walk Hotel","station_phone":"207-934-1013","updated_at":"2017-03-03T19:51:49Z","geocode_status":"GPS","latitude":43.530822,"longitude":-70.361456,"city":"Old Orchard Beach","intersection_directions":null,"plus4":null,"state":"ME","street_address":"194 E Grand Ave","zip":"04604","bd_blends":null,"e85_blender_pump":null,"ev_connector_types":["J1772"],"ev_dc_fast_num":null,"ev_level1_evse_num":null,"ev_level2_evse_num":1,"ev_network":null,"ev_network_web":null,"ev_other_evse":null,"hy_status_link":null,"lpg_primary":null,"ng_fill_type_code":null,"ng_psi":null,"ng_vehicle_class":null},{"access_days_time":"24 hours daily","cards_accepted":null,"date_last_confirmed":"2017-07-10","expected_date":null,"fuel_type_code":"ELEC","id":68790,"groups_with_access_code":"Public","open_date":null,"owner_type_code":null,"status_code":"E","station_name":"BMW OF WESTBROO","station_phone":"888-758-4389","updated_at":"2017-07-10T08:50:38Z","geocode_status":"200-9","latitude":43.672914,"longitude":-70.336613,"city":"Westbrook","intersection_directions":"STATION SA02\nDC FAST 01","plus4":null,"state":"ME","street_address":"1 Saunders Way","zip":"04092","bd_blends":null,"e85_blender_pump":null,"ev_connector_types":["J1772","J1772COMBO"],"ev_dc_fast_num":1,"ev_level1_evse_num":null,"ev_level2_evse_num":1,"ev_network":"ChargePoint Network","ev_network_web":"http://www.chargepoint.com/","ev_other_evse":null,"hy_status_link":null,"lpg_primary":null,"ng_fill_type_code":null,"ng_psi":null,"ng_vehicle_class":null,"ev_network_ids":{"posts":["1:105787","1:111567"]}},{"access_days_time":"24 hours daily","cards_accepted":null,"date_last_confirmed":"2017-04-06","expected_date":null,"fuel_type_code":"ELEC","id":68888,"groups_with_access_code":"Public","open_date":"2015-07-01","owner_type_code":"P","status_code":"E","station_name":"Paris Autobarn LLC","station_phone":"207-744-2169","updated_at":"2017-04-06T14:16:22Z","geocode_status":"GPS","latitude":44.220643,"longitude":-70.500415,"city":"South Paris","intersection_directions":"Located at the intersection of US RT 119 and East Oxford Rd","plus4":null,"state":"ME","street_address":"161 E Main St","zip":"04281","bd_blends":null,"e85_blender_pump":null,"ev_connector_types":["J1772","TESLA"],"ev_dc_fast_num":null,"ev_level1_evse_num":null,"ev_level2_evse_num":3,"ev_network":"Tesla","ev_network_web":"http://www.teslamotors.com/supercharger","ev_other_evse":null,"hy_status_link":null,"lpg_primary":null,"ng_fill_type_code":null,"ng_psi":null,"ng_vehicle_class":null},{"access_days_time":"24 hours daily; free for guest use","cards_accepted":"Cash A D M V","date_last_confirmed":"2017-03-03","expected_date":null,"fuel_type_code":"ELEC","id":68889,"groups_with_access_code":"Public","open_date":"2015-08-15","owner_type_code":"P","status_code":"E","station_name":"Port Inn Kennebunk","station_phone":"207-985-6100  877-798-3752","updated_at":"2017-03-03T19:44:36Z","geocode_status":"200-8","latitude":43.3796416,"longitude":-70.5488849,"city":"Kennebunk","intersection_directions":null,"plus4":null,"state":"ME","street_address":"55 York St","zip":"04043","bd_blends":null,"e85_blender_pump":null,"ev_connector_types":["TESLA","J1772"],"ev_dc_fast_num":null,"ev_level1_evse_num":null,"ev_level2_evse_num":3,"ev_network":null,"ev_network_web":null,"ev_other_evse":null,"hy_status_link":null,"lpg_primary":null,"ng_fill_type_code":null,"ng_psi":null,"ng_vehicle_class":null},{"access_days_time":"Garage business hours; maximum stay of 2 hours","cards_accepted":null,"date_last_confirmed":"2017-03-03","expected_date":null,"fuel_type_code":"ELEC","id":69093,"groups_with_access_code":"Public - Call ahead","open_date":"2015-08-01","owner_type_code":"P","status_code":"E","station_name":"Spring Street Parking Garage","station_phone":"207-874-2842","updated_at":"2017-03-03T19:44:31Z","geocode_status":"200-8","latitude":43.6546995,"longitude":-70.2597204,"city":"Portland","intersection_directions":null,"plus4":null,"state":"ME","street_address":"45 Spring St","zip":"04101","bd_blends":null,"e85_blender_pump":null,"ev_connector_types":["J1772"],"ev_dc_fast_num":null,"ev_level1_evse_num":null,"ev_level2_evse_num":1,"ev_network":null,"ev_network_web":null,"ev_other_evse":null,"hy_status_link":null,"lpg_primary":null,"ng_fill_type_code":null,"ng_psi":null,"ng_vehicle_class":null},{"access_days_time":"Garage business hours","cards_accepted":null,"date_last_confirmed":"2017-03-03","expected_date":null,"fuel_type_code":"ELEC","id":69094,"groups_with_access_code":"Public - Call ahead","open_date":"2015-08-01","owner_type_code":"P","status_code":"E","station_name":"Temple Street Parking Garage","station_phone":"207-772-5762","updated_at":"2017-03-03T18:34:38Z","geocode_status":"200-8","latitude":43.6577123,"longitude":-70.256167,"city":"Portland","intersection_directions":null,"plus4":null,"state":"ME","street_address":"11 Temple St","zip":"04101","bd_blends":null,"e85_blender_pump":null,"ev_connector_types":["J1772"],"ev_dc_fast_num":null,"ev_level1_evse_num":null,"ev_level2_evse_num":1,"ev_network":null,"ev_network_web":null,"ev_other_evse":null,"hy_status_link":null,"lpg_primary":null,"ng_fill_type_code":null,"ng_psi":null,"ng_vehicle_class":null},{"access_days_time":"24 hours daily","cards_accepted":null,"date_last_confirmed":"2016-12-01","expected_date":null,"fuel_type_code":"ELEC","id":69096,"groups_with_access_code":"Public","open_date":"2015-08-01","owner_type_code":"LG","status_code":"E","station_name":"Raymond Town Hall","station_phone":"207-655-4742","updated_at":"2017-02-27T18:47:15Z","geocode_status":"GPS","latitude":43.935206,"longitude":-70.44176,"city":"Raymond","intersection_directions":null,"plus4":null,"state":"ME","street_address":"401 Webbs Mills Rd","zip":"04071","bd_blends":null,"e85_blender_pump":null,"ev_connector_types":["J1772"],"ev_dc_fast_num":null,"ev_level1_evse_num":null,"ev_level2_evse_num":1,"ev_network":null,"ev_network_web":null,"ev_other_evse":null,"hy_status_link":null,"lpg_primary":null,"ng_fill_type_code":null,"ng_psi":null,"ng_vehicle_class":null},{"access_days_time":"24 hours daily; for Tesla use only","cards_accepted":null,"date_last_confirmed":"2016-10-04","expected_date":null,"fuel_type_code":"ELEC","id":71831,"groups_with_access_code":"Public","open_date":"2015-11-01","owner_type_code":"P","status_code":"E","station_name":"Marketplace at Augusta - Tesla","station_phone":"877-798-3752","updated_at":"2017-01-18T01:47:50Z","geocode_status":"200-8","latitude":44.3453053,"longitude":-69.7886426,"city":"Augusta","intersection_directions":"Behind Red Robin, near Ruby Tuesday ","plus4":null,"state":"ME","street_address":"197 Civic Center Dr","zip":"04330","bd_blends":null,"e85_blender_pump":null,"ev_connector_types":["TESLA"],"ev_dc_fast_num":8,"ev_level1_evse_num":null,"ev_level2_evse_num":null,"ev_network":"Tesla","ev_network_web":"http://www.teslamotors.com/supercharger","ev_other_evse":null,"hy_status_link":null,"lpg_primary":null,"ng_fill_type_code":null,"ng_psi":null,"ng_vehicle_class":null},{"access_days_time":"24 hours daily","cards_accepted":null,"date_last_confirmed":"2017-07-10","expected_date":null,"fuel_type_code":"ELEC","id":72550,"groups_with_access_code":"Public","open_date":null,"owner_type_code":null,"status_code":"E","station_name":"PRIME VW 1","station_phone":"888-758-4389","updated_at":"2017-07-10T08:49:02Z","geocode_status":"GPS","latitude":43.5293319,"longitude":-70.4269533,"city":"Saco","intersection_directions":"VW_401425_A","plus4":null,"state":"ME","street_address":"784 Portland Rd","zip":"04072","bd_blends":null,"e85_blender_pump":null,"ev_connector_types":["J1772"],"ev_dc_fast_num":null,"ev_level1_evse_num":null,"ev_level2_evse_num":2,"ev_network":"ChargePoint Network","ev_network_web":"http://www.chargepoint.com/","ev_other_evse":null,"hy_status_link":null,"lpg_primary":null,"ng_fill_type_code":null,"ng_psi":null,"ng_vehicle_class":null,"ev_network_ids":{"posts":["1:108047"]}},{"access_days_time":"24 hours daily","cards_accepted":null,"date_last_confirmed":"2017-07-10","expected_date":null,"fuel_type_code":"ELEC","id":73622,"groups_with_access_code":"Public","open_date":null,"owner_type_code":null,"status_code":"E","station_name":"PPMG","station_phone":"888-758-4389","updated_at":"2017-07-10T08:23:36Z","geocode_status":"GPS","latitude":43.6589683,"longitude":-70.2608532,"city":"Portland","intersection_directions":"CHARGER; Located on the ground level of the garage","plus4":null,"state":"ME","street_address":"315 Cumberland Ave","zip":"04101","bd_blends":null,"e85_blender_pump":null,"ev_connector_types":["J1772"],"ev_dc_fast_num":null,"ev_level1_evse_num":null,"ev_level2_evse_num":2,"ev_network":"ChargePoint Network","ev_network_web":"http://www.chargepoint.com/","ev_other_evse":null,"hy_status_link":null,"lpg_primary":null,"ng_fill_type_code":null,"ng_psi":null,"ng_vehicle_class":null,"ev_network_ids":{"posts":["1:127453"]}},{"access_days_time":"24 hours daily; for guest use only","cards_accepted":null,"date_last_confirmed":"2016-03-07","expected_date":null,"fuel_type_code":"ELEC","id":73735,"groups_with_access_code":"Public - Call ahead","open_date":"2016-02-01","owner_type_code":"P","status_code":"E","station_name":"Berry Manor Inn - Tesla","station_phone":"207-596-7696  877-798-3752","updated_at":"2017-01-18T01:57:44Z","geocode_status":"200-8","latitude":44.1085336,"longitude":-69.1157237,"city":"Rockland","intersection_directions":null,"plus4":null,"state":"ME","street_address":"81 Talbot Ave","zip":"04841","bd_blends":null,"e85_blender_pump":null,"ev_connector_types":["TESLA"],"ev_dc_fast_num":null,"ev_level1_evse_num":null,"ev_level2_evse_num":1,"ev_network":"Tesla","ev_network_web":"http://www.teslamotors.com/supercharger","ev_other_evse":null,"hy_status_link":null,"lpg_primary":null,"ng_fill_type_code":null,"ng_psi":null,"ng_vehicle_class":null},{"access_days_time":"24 hours daily; for Tesla use only; see front desk for access","cards_accepted":null,"date_last_confirmed":"2016-03-07","expected_date":null,"fuel_type_code":"ELEC","id":73741,"groups_with_access_code":"Public","open_date":"2016-02-01","owner_type_code":"P","status_code":"E","station_name":"Camden Maine Stay Inn - Tesla","station_phone":"207-236-9636  877-798-3752","updated_at":"2017-01-18T01:57:45Z","geocode_status":"200-8","latitude":44.2141538,"longitude":-69.0624605,"city":"Camden","intersection_directions":null,"plus4":null,"state":"ME","street_address":"22 High St","zip":"04843","bd_blends":null,"e85_blender_pump":null,"ev_connector_types":["TESLA"],"ev_dc_fast_num":null,"ev_level1_evse_num":null,"ev_level2_evse_num":1,"ev_network":"Tesla","ev_network_web":"http://www.teslamotors.com/supercharger","ev_other_evse":null,"hy_status_link":null,"lpg_primary":null,"ng_fill_type_code":null,"ng_psi":null,"ng_vehicle_class":null},{"access_days_time":"24 hours daily; for guest use only; see front desk for access","cards_accepted":null,"date_last_confirmed":"2016-03-07","expected_date":null,"fuel_type_code":"ELEC","id":73744,"groups_with_access_code":"Public","open_date":"2016-02-01","owner_type_code":"P","status_code":"E","station_name":"Captain Jefferds Inn - Tesla","station_phone":"207-967-2311  877-798-3752","updated_at":"2017-01-18T00:31:12Z","geocode_status":"200-8","latitude":43.3591054,"longitude":-70.4746871,"city":"Kennebunkport","intersection_directions":null,"plus4":null,"state":"ME","street_address":"5 Pearl St","zip":"04046","bd_blends":null,"e85_blender_pump":null,"ev_connector_types":["TESLA"],"ev_dc_fast_num":null,"ev_level1_evse_num":null,"ev_level2_evse_num":1,"ev_network":"Tesla","ev_network_web":"http://www.teslamotors.com/supercharger","ev_other_evse":null,"hy_status_link":null,"lpg_primary":null,"ng_fill_type_code":null,"ng_psi":null,"ng_vehicle_class":null},{"access_days_time":"24 hours daily; for guest use only","cards_accepted":null,"date_last_confirmed":"2016-03-07","expected_date":null,"fuel_type_code":"ELEC","id":73745,"groups_with_access_code":"Public","open_date":"2016-02-01","owner_type_code":"P","status_code":"E","station_name":"Captain Lord Mansion - Tesla","station_phone":"207-967-3141  877-798-3752","updated_at":"2017-01-18T00:51:34Z","geocode_status":"200-8","latitude":43.358934,"longitude":-70.4737979,"city":"Kennebunkport","intersection_directions":null,"plus4":null,"state":"ME","street_address":"6 Pleasant St","zip":"04046","bd_blends":null,"e85_blender_pump":null,"ev_connector_types":["TESLA"],"ev_dc_fast_num":null,"ev_level1_evse_num":null,"ev_level2_evse_num":1,"ev_network":"Tesla","ev_network_web":"http://www.teslamotors.com/supercharger","ev_other_evse":null,"hy_status_link":null,"lpg_primary":null,"ng_fill_type_code":null,"ng_psi":null,"ng_vehicle_class":null},{"access_days_time":"24 hours daily; for Tesla use only; see front desk for access","cards_accepted":null,"date_last_confirmed":"2016-03-07","expected_date":null,"fuel_type_code":"ELEC","id":73746,"groups_with_access_code":"Public","open_date":"2016-02-01","owner_type_code":"P","status_code":"E","station_name":"Chewonki Foundation - Tesla","station_phone":"207-882-7323  877-798-3752","updated_at":"2017-01-18T01:33:49Z","geocode_status":"200-8","latitude":43.9440013,"longitude":-69.7171808,"city":"Wiscasset","intersection_directions":null,"plus4":null,"state":"ME","street_address":"485 Chewonki Neck Rd","zip":"04578","bd_blends":null,"e85_blender_pump":null,"ev_connector_types":["TESLA"],"ev_dc_fast_num":null,"ev_level1_evse_num":null,"ev_level2_evse_num":1,"ev_network":"Tesla","ev_network_web":"http://www.teslamotors.com/supercharger","ev_other_evse":null,"hy_status_link":null,"lpg_primary":null,"ng_fill_type_code":null,"ng_psi":null,"ng_vehicle_class":null},{"access_days_time":"24 hours daily; for guest use only; see front desk for access","cards_accepted":null,"date_last_confirmed":"2016-03-07","expected_date":null,"fuel_type_code":"ELEC","id":73755,"groups_with_access_code":"Public","open_date":"2016-02-01","owner_type_code":"P","status_code":"E","station_name":"Harbor Watch'Inn - Tesla","station_phone":"207-526-4563  877-798-3752","updated_at":"2017-01-18T02:34:34Z","geocode_status":"200-8","latitude":44.1526546,"longitude":-68.4411219,"city":"Swans Island","intersection_directions":null,"plus4":null,"state":"ME","street_address":"111 Minturn Rd","zip":"04685","bd_blends":null,"e85_blender_pump":null,"ev_connector_types":["TESLA"],"ev_dc_fast_num":null,"ev_level1_evse_num":null,"ev_level2_evse_num":1,"ev_network":"Tesla","ev_network_web":"http://www.teslamotors.com/supercharger","ev_other_evse":null,"hy_status_link":null,"lpg_primary":null,"ng_fill_type_code":null,"ng_psi":null,"ng_vehicle_class":null},{"access_days_time":"24 hours daily; for guest use only; see front desk for access","cards_accepted":null,"date_last_confirmed":"2016-03-07","expected_date":null,"fuel_type_code":"ELEC","id":73757,"groups_with_access_code":"Public","open_date":"2016-02-01","owner_type_code":"P","status_code":"E","station_name":"Hilton Garden Inn - Tesla","station_phone":"207-780-0780  877-798-3752","updated_at":"2017-01-18T00:31:46Z","geocode_status":"200-8","latitude":43.6579897,"longitude":-70.2502285,"city":"Portland","intersection_directions":null,"plus4":null,"state":"ME","street_address":"65 Commercial St","zip":"04101","bd_blends":null,"e85_blender_pump":null,"ev_connector_types":["TESLA"],"ev_dc_fast_num":null,"ev_level1_evse_num":null,"ev_level2_evse_num":1,"ev_network":"Tesla","ev_network_web":"http://www.teslamotors.com/supercharger","ev_other_evse":null,"hy_status_link":null,"lpg_primary":null,"ng_fill_type_code":null,"ng_psi":null,"ng_vehicle_class":null},{"access_days_time":"24 hours daily; for Tesla use only; see front desk for access","cards_accepted":null,"date_last_confirmed":"2016-03-07","expected_date":null,"fuel_type_code":"ELEC","id":73761,"groups_with_access_code":"Public","open_date":"2016-02-01","owner_type_code":"P","status_code":"E","station_name":"Inn at Bay Ledge - Tesla","station_phone":"207-288-4204  877-798-3752","updated_at":"2017-01-18T00:21:31Z","geocode_status":"200-8","latitude":44.437784,"longitude":-68.266428,"city":"Bar Harbor","intersection_directions":null,"plus4":null,"state":"ME","street_address":"150 Sand Point Rd","zip":"04609","bd_blends":null,"e85_blender_pump":null,"ev_connector_types":["TESLA"],"ev_dc_fast_num":null,"ev_level1_evse_num":null,"ev_level2_evse_num":1,"ev_network":"Tesla","ev_network_web":"http://www.teslamotors.com/supercharger","ev_other_evse":null,"hy_status_link":null,"lpg_primary":null,"ng_fill_type_code":null,"ng_psi":null,"ng_vehicle_class":null},{"access_days_time":"24 hours daily; for guest use only","cards_accepted":null,"date_last_confirmed":"2016-10-04","expected_date":null,"fuel_type_code":"ELEC","id":73764,"groups_with_access_code":"Public - Call ahead","open_date":"2016-02-01","owner_type_code":"P","status_code":"E","station_name":"Inn by the Sea","station_phone":"207-799-3134","updated_at":"2017-01-18T02:28:06Z","geocode_status":"GPS","latitude":43.567346,"longitude":-70.227161,"city":"Cape Elizabeth","intersection_directions":null,"plus4":null,"state":"ME","street_address":"40 Bowery Beach Rd","zip":"04107","bd_blends":null,"e85_blender_pump":null,"ev_connector_types":["TESLA","J1772"],"ev_dc_fast_num":null,"ev_level1_evse_num":null,"ev_level2_evse_num":3,"ev_network":"Tesla","ev_network_web":"http://www.teslamotors.com/supercharger","ev_other_evse":null,"hy_status_link":null,"lpg_primary":null,"ng_fill_type_code":null,"ng_psi":null,"ng_vehicle_class":null},{"access_days_time":"24 hours daily; for guest use only; see front desk for access","cards_accepted":null,"date_last_confirmed":"2016-03-07","expected_date":null,"fuel_type_code":"ELEC","id":73765,"groups_with_access_code":"Public","open_date":"2016-02-01","owner_type_code":"P","status_code":"E","station_name":"Inns at Blackberry Common - Tesla","station_phone":"207-236-6060  977-798-3752","updated_at":"2017-01-18T00:53:27Z","geocode_status":"200-8","latitude":44.2054081,"longitude":-69.0700992,"city":"Camden","intersection_directions":null,"plus4":null,"state":"ME","street_address":"82 Elm St","zip":"04843","bd_blends":null,"e85_blender_pump":null,"ev_connector_types":["TESLA"],"ev_dc_fast_num":null,"ev_level1_evse_num":null,"ev_level2_evse_num":1,"ev_network":"Tesla","ev_network_web":"http://www.teslamotors.com/supercharger","ev_other_evse":null,"hy_status_link":null,"lpg_primary":null,"ng_fill_type_code":null,"ng_psi":null,"ng_vehicle_class":null},{"access_days_time":"24 hours daily; for guest use only; see front desk for access","cards_accepted":null,"date_last_confirmed":"2016-03-07","expected_date":null,"fuel_type_code":"ELEC","id":73769,"groups_with_access_code":"Public","open_date":"2016-02-01","owner_type_code":"P","status_code":"E","station_name":"Maine Stay Inn and Cottages - Tesla","station_phone":"207-466-0793  877-798-3752","updated_at":"2017-01-18T00:21:32Z","geocode_status":"200-8","latitude":43.3600867,"longitude":-70.4734677,"city":"Kennebunkport","intersection_directions":null,"plus4":null,"state":"ME","street_address":"34 Maine St","zip":"04046","bd_blends":null,"e85_blender_pump":null,"ev_connector_types":["TESLA"],"ev_dc_fast_num":null,"ev_level1_evse_num":null,"ev_level2_evse_num":1,"ev_network":"Tesla","ev_network_web":"http://www.teslamotors.com/supercharger","ev_other_evse":null,"hy_status_link":null,"lpg_primary":null,"ng_fill_type_code":null,"ng_psi":null,"ng_vehicle_class":null},{"access_days_time":"24 hours daily; for Tesla use only","cards_accepted":null,"date_last_confirmed":"2016-03-07","expected_date":null,"fuel_type_code":"ELEC","id":73770,"groups_with_access_code":"Public - Call ahead","open_date":"2016-02-01","owner_type_code":"P","status_code":"E","station_name":"Medomak Camp - Tesla","station_phone":"207-845-6001  877-798-3752","updated_at":"2017-01-18T00:53:29Z","geocode_status":"200-8","latitude":44.2860812,"longitude":-69.3679085,"city":"Washington","intersection_directions":null,"plus4":null,"state":"ME","street_address":"178 Liberty Rd","zip":"04574","bd_blends":null,"e85_blender_pump":null,"ev_connector_types":["TESLA"],"ev_dc_fast_num":null,"ev_level1_evse_num":null,"ev_level2_evse_num":1,"ev_network":"Tesla","ev_network_web":"http://www.teslamotors.com/supercharger","ev_other_evse":null,"hy_status_link":null,"lpg_primary":null,"ng_fill_type_code":null,"ng_psi":null,"ng_vehicle_class":null},{"access_days_time":"24 hours daily; for Tesla use only; see front desk for access","cards_accepted":null,"date_last_confirmed":"2016-03-07","expected_date":null,"fuel_type_code":"ELEC","id":73781,"groups_with_access_code":"Public","open_date":"2016-02-01","owner_type_code":"P","status_code":"E","station_name":"Sugarloaf - Tesla","station_phone":"800-843-5623  877-798-3752","updated_at":"2017-01-18T00:53:28Z","geocode_status":"200-8","latitude":45.054252,"longitude":-70.3086654,"city":"Carrabassett Valley","intersection_directions":null,"plus4":null,"state":"ME","street_address":"5092 Access Rd","zip":"49747","bd_blends":null,"e85_blender_pump":null,"ev_connector_types":["TESLA"],"ev_dc_fast_num":null,"ev_level1_evse_num":null,"ev_level2_evse_num":2,"ev_network":"Tesla","ev_network_web":"http://www.teslamotors.com/supercharger","ev_other_evse":null,"hy_status_link":null,"lpg_primary":null,"ng_fill_type_code":null,"ng_psi":null,"ng_vehicle_class":null},{"access_days_time":"24 hours daily; for Tesla use only","cards_accepted":null,"date_last_confirmed":"2016-03-07","expected_date":null,"fuel_type_code":"ELEC","id":73783,"groups_with_access_code":"Public","open_date":"2016-02-01","owner_type_code":"P","status_code":"E","station_name":"Sunday River Resort - Tesla","station_phone":"207-824-3000  877-798-3752","updated_at":"2017-01-18T00:53:29Z","geocode_status":"200-8","latitude":44.4732745,"longitude":-70.8556528,"city":"Newry","intersection_directions":null,"plus4":null,"state":"ME","street_address":"23 S Ridge Rd","zip":"04261","bd_blends":null,"e85_blender_pump":null,"ev_connector_types":["TESLA"],"ev_dc_fast_num":null,"ev_level1_evse_num":null,"ev_level2_evse_num":3,"ev_network":"Tesla","ev_network_web":"http://www.teslamotors.com/supercharger","ev_other_evse":null,"hy_status_link":null,"lpg_primary":null,"ng_fill_type_code":null,"ng_psi":null,"ng_vehicle_class":null},{"access_days_time":"24 hours daily; for Tesla use only; see front desk for access","cards_accepted":null,"date_last_confirmed":"2016-03-07","expected_date":null,"fuel_type_code":"ELEC","id":73784,"groups_with_access_code":"Public","open_date":"2016-02-01","owner_type_code":"P","status_code":"E","station_name":"The Acadia Hotel - Tesla","station_phone":"207-288-5721  877-798-3752","updated_at":"2017-01-18T02:00:05Z","geocode_status":"200-8","latitude":44.3870482,"longitude":-68.2057015,"city":"Bar Harbor","intersection_directions":null,"plus4":null,"state":"ME","street_address":"20 Mt Desert St","zip":"04609","bd_blends":null,"e85_blender_pump":null,"ev_connector_types":["TESLA"],"ev_dc_fast_num":null,"ev_level1_evse_num":null,"ev_level2_evse_num":1,"ev_network":"Tesla","ev_network_web":"http://www.teslamotors.com/supercharger","ev_other_evse":null,"hy_status_link":null,"lpg_primary":null,"ng_fill_type_code":null,"ng_psi":null,"ng_vehicle_class":null},{"access_days_time":"24 hours daily; for guest use only","cards_accepted":null,"date_last_confirmed":"2016-03-07","expected_date":null,"fuel_type_code":"ELEC","id":73786,"groups_with_access_code":"Public","open_date":"2016-02-01","owner_type_code":"P","status_code":"E","station_name":"The Breakwater Inn & Spa - Tesla","station_phone":"207-967-5333  877-798-3752","updated_at":"2017-01-18T01:33:49Z","geocode_status":"200-8","latitude":43.3491695,"longitude":-70.4729397,"city":"Kennebunkport","intersection_directions":null,"plus4":null,"state":"ME","street_address":"127 Ocean Ave","zip":"04046","bd_blends":null,"e85_blender_pump":null,"ev_connector_types":["TESLA"],"ev_dc_fast_num":null,"ev_level1_evse_num":null,"ev_level2_evse_num":2,"ev_network":"Tesla","ev_network_web":"http://www.teslamotors.com/supercharger","ev_other_evse":null,"hy_status_link":null,"lpg_primary":null,"ng_fill_type_code":null,"ng_psi":null,"ng_vehicle_class":null},{"access_days_time":"24 hours daily; for guest use only","cards_accepted":null,"date_last_confirmed":"2016-03-07","expected_date":null,"fuel_type_code":"ELEC","id":73792,"groups_with_access_code":"Public - Call ahead","open_date":"2016-02-01","owner_type_code":"P","status_code":"E","station_name":"The Inn at English Meadows - Tesla","station_phone":"207-272-0698  877-798-3752","updated_at":"2017-01-18T00:21:20Z","geocode_status":"200-8","latitude":43.3618989,"longitude":-70.4873972,"city":"Kennebunk","intersection_directions":null,"plus4":null,"state":"ME","street_address":"141 Port Rd","zip":"04043","bd_blends":null,"e85_blender_pump":null,"ev_connector_types":["TESLA"],"ev_dc_fast_num":null,"ev_level1_evse_num":null,"ev_level2_evse_num":1,"ev_network":"Tesla","ev_network_web":"http://www.teslamotors.com/supercharger","ev_other_evse":null,"hy_status_link":null,"lpg_primary":null,"ng_fill_type_code":null,"ng_psi":null,"ng_vehicle_class":null},{"access_days_time":"24 hours daily; for guest use only","cards_accepted":null,"date_last_confirmed":"2016-03-07","expected_date":null,"fuel_type_code":"ELEC","id":73798,"groups_with_access_code":"Public","open_date":"2016-02-01","owner_type_code":"P","status_code":"E","station_name":"The White Barn Inn - Tesla","station_phone":"207-967-2321  877-798-3752","updated_at":"2017-01-18T00:16:34Z","geocode_status":"200-8","latitude":43.3552642,"longitude":-70.4791556,"city":"Kennebunk","intersection_directions":null,"plus4":null,"state":"ME","street_address":"37 Beach Ave","zip":"04043","bd_blends":null,"e85_blender_pump":null,"ev_connector_types":["TESLA"],"ev_dc_fast_num":null,"ev_level1_evse_num":null,"ev_level2_evse_num":2,"ev_network":"Tesla","ev_network_web":"http://www.teslamotors.com/supercharger","ev_other_evse":null,"hy_status_link":null,"lpg_primary":null,"ng_fill_type_code":null,"ng_psi":null,"ng_vehicle_class":null},{"access_days_time":"24 hours daily; for guest use only; see front desk for access","cards_accepted":null,"date_last_confirmed":"2016-03-07","expected_date":null,"fuel_type_code":"ELEC","id":73800,"groups_with_access_code":"Public","open_date":"2016-02-01","owner_type_code":"P","status_code":"E","station_name":"York Harbor Inn - Tesla","station_phone":"800-343-3869  877-798-3752","updated_at":"2017-01-18T00:16:35Z","geocode_status":"200-8","latitude":43.1341338,"longitude":-70.6380931,"city":"York","intersection_directions":null,"plus4":null,"state":"ME","street_address":"480 York St","zip":"03909","bd_blends":null,"e85_blender_pump":null,"ev_connector_types":["TESLA"],"ev_dc_fast_num":null,"ev_level1_evse_num":null,"ev_level2_evse_num":1,"ev_network":"Tesla","ev_network_web":"http://www.teslamotors.com/supercharger","ev_other_evse":null,"hy_status_link":null,"lpg_primary":null,"ng_fill_type_code":null,"ng_psi":null,"ng_vehicle_class":null},{"access_days_time":"24 hours daily","cards_accepted":null,"date_last_confirmed":"2017-06-02","expected_date":null,"fuel_type_code":"ELEC","id":74173,"groups_with_access_code":"Public","open_date":"2016-01-01","owner_type_code":"P","status_code":"E","station_name":"Bowdoin College","station_phone":"207-725-3071  855-900-7584","updated_at":"2017-06-02T16:13:23Z","geocode_status":"GPS","latitude":43.9067336,"longitude":-69.9637712,"city":"Brunswick","intersection_directions":null,"plus4":null,"state":"ME","street_address":"6 College St","zip":"04011","bd_blends":null,"e85_blender_pump":null,"ev_connector_types":["J1772"],"ev_dc_fast_num":null,"ev_level1_evse_num":null,"ev_level2_evse_num":2,"ev_network":"Greenlots","ev_network_web":"http://greenlots.com/","ev_other_evse":null,"hy_status_link":null,"lpg_primary":null,"ng_fill_type_code":null,"ng_psi":null,"ng_vehicle_class":null},{"access_days_time":"24 hours daily","cards_accepted":null,"date_last_confirmed":"2017-03-03","expected_date":null,"fuel_type_code":"ELEC","id":75404,"groups_with_access_code":"Public","open_date":"2016-04-01","owner_type_code":"P","status_code":"E","station_name":"Falmouth Town Hall","station_phone":"207-781-5253","updated_at":"2017-03-03T18:32:41Z","geocode_status":"200-9","latitude":43.7338683,"longitude":-70.2794885,"city":"Falmouth","intersection_directions":null,"plus4":null,"state":"ME","street_address":"271 Falmouth Rd","zip":"04105","bd_blends":null,"e85_blender_pump":null,"ev_connector_types":["J1772"],"ev_dc_fast_num":null,"ev_level1_evse_num":null,"ev_level2_evse_num":1,"ev_network":null,"ev_network_web":null,"ev_other_evse":null,"hy_status_link":null,"lpg_primary":null,"ng_fill_type_code":null,"ng_psi":null,"ng_vehicle_class":null},{"access_days_time":"24 hours daily","cards_accepted":null,"date_last_confirmed":"2017-03-03","expected_date":null,"fuel_type_code":"ELEC","id":75405,"groups_with_access_code":"Public","open_date":"2016-04-01","owner_type_code":"P","status_code":"E","station_name":"Pineland Farms Visitor's Center","station_phone":"207-688-4539","updated_at":"2017-03-03T19:54:49Z","geocode_status":"200-8","latitude":43.9052128,"longitude":-70.2579315,"city":"New Gloucester","intersection_directions":null,"plus4":null,"state":"ME","street_address":"15 Farm View Dr","zip":"04260","bd_blends":null,"e85_blender_pump":null,"ev_connector_types":["J1772"],"ev_dc_fast_num":null,"ev_level1_evse_num":null,"ev_level2_evse_num":1,"ev_network":null,"ev_network_web":null,"ev_other_evse":null,"hy_status_link":null,"lpg_primary":null,"ng_fill_type_code":null,"ng_psi":null,"ng_vehicle_class":null},{"access_days_time":"24 hours daily","cards_accepted":null,"date_last_confirmed":"2017-03-03","expected_date":null,"fuel_type_code":"ELEC","id":75406,"groups_with_access_code":"Public","open_date":"2016-04-01","owner_type_code":"P","status_code":"E","station_name":"Windham Town Hall","station_phone":"207-892-1900","updated_at":"2017-03-03T19:41:52Z","geocode_status":"200-8","latitude":43.7912293,"longitude":-70.4100217,"city":"Windham","intersection_directions":null,"plus4":null,"state":"ME","street_address":"8 School Rd","zip":"04062","bd_blends":null,"e85_blender_pump":null,"ev_connector_types":["J1772"],"ev_dc_fast_num":null,"ev_level1_evse_num":null,"ev_level2_evse_num":1,"ev_network":null,"ev_network_web":null,"ev_other_evse":null,"hy_status_link":null,"lpg_primary":null,"ng_fill_type_code":null,"ng_psi":null,"ng_vehicle_class":null},{"access_days_time":"24 hours daily","cards_accepted":null,"date_last_confirmed":"2017-03-03","expected_date":null,"fuel_type_code":"ELEC","id":75423,"groups_with_access_code":"Public","open_date":"2016-04-01","owner_type_code":"P","status_code":"E","station_name":"Depot Street Parking","station_phone":"207-647-8786","updated_at":"2017-03-03T19:47:26Z","geocode_status":"200-9","latitude":44.053112,"longitude":-70.7069279,"city":"Bridgton","intersection_directions":null,"plus4":null,"state":"ME","street_address":"15 Depot St","zip":"04009","bd_blends":null,"e85_blender_pump":null,"ev_connector_types":["J1772"],"ev_dc_fast_num":null,"ev_level1_evse_num":null,"ev_level2_evse_num":1,"ev_network":null,"ev_network_web":null,"ev_other_evse":null,"hy_status_link":null,"lpg_primary":null,"ng_fill_type_code":null,"ng_psi":null,"ng_vehicle_class":null},{"access_days_time":"24 hours daily; parking without a university permit only when charging","cards_accepted":null,"date_last_confirmed":"2017-03-03","expected_date":null,"fuel_type_code":"ELEC","id":75424,"groups_with_access_code":"Public","open_date":"2016-04-01","owner_type_code":"P","status_code":"E","station_name":"University of Southern Maine","station_phone":"207-780-4718","updated_at":"2017-03-03T19:49:14Z","geocode_status":"200-8","latitude":43.6613158,"longitude":-70.2749993,"city":"Portland","intersection_directions":"Entrance of USM parking garage","plus4":null,"state":"ME","street_address":"25 Surrenden St","zip":"04101","bd_blends":null,"e85_blender_pump":null,"ev_connector_types":["J1772"],"ev_dc_fast_num":null,"ev_level1_evse_num":null,"ev_level2_evse_num":1,"ev_network":null,"ev_network_web":null,"ev_other_evse":null,"hy_status_link":null,"lpg_primary":null,"ng_fill_type_code":null,"ng_psi":null,"ng_vehicle_class":null},{"access_days_time":"24 hours daily","cards_accepted":null,"date_last_confirmed":"2017-03-03","expected_date":null,"fuel_type_code":"ELEC","id":75425,"groups_with_access_code":"Public","open_date":"2016-04-01","owner_type_code":"P","status_code":"E","station_name":"Marriott Hotel - Courtyard Downtown","station_phone":"207-780-6000","updated_at":"2017-03-03T18:40:21Z","geocode_status":"200-9","latitude":43.6529533,"longitude":-70.2565643,"city":"Portland","intersection_directions":null,"plus4":null,"state":"ME","street_address":"321 Commercial St","zip":"04104","bd_blends":null,"e85_blender_pump":null,"ev_connector_types":["J1772"],"ev_dc_fast_num":null,"ev_level1_evse_num":null,"ev_level2_evse_num":1,"ev_network":null,"ev_network_web":null,"ev_other_evse":null,"hy_status_link":null,"lpg_primary":null,"ng_fill_type_code":null,"ng_psi":null,"ng_vehicle_class":null},{"access_days_time":"24 hours daily; EVgo network subscription and key fob required","cards_accepted":null,"date_last_confirmed":"2017-07-10","expected_date":null,"fuel_type_code":"ELEC","id":75566,"groups_with_access_code":"Public - Card key at all times","open_date":null,"owner_type_code":null,"status_code":"E","station_name":"Hannaford Market - Topsham","station_phone":"877-455-3833","updated_at":"2017-07-10T09:54:41Z","geocode_status":"GPS","latitude":43.9395637512207,"longitude":-69.9778900146484,"city":"Topsham","intersection_directions":null,"plus4":null,"state":"ME","street_address":"49 Topsham Fair Mall Rd","zip":"04086","bd_blends":null,"e85_blender_pump":null,"ev_connector_types":["CHADEMO","J1772COMBO"],"ev_dc_fast_num":2,"ev_level1_evse_num":null,"ev_level2_evse_num":null,"ev_network":"eVgo Network","ev_network_web":"https://www.evgonetwork.com/","ev_other_evse":null,"hy_status_link":null,"lpg_primary":null,"ng_fill_type_code":null,"ng_psi":null,"ng_vehicle_class":null,"ev_network_ids":{"station":["eVgoSA775"],"posts":["EVFC-NRG-032016-208-0201-C|EVFC-NRG-032016-208-0201-J"],"ports":["EVFC-NRG-032016-208-0201-C","EVFC-NRG-032016-208-0201-J"]}},{"access_days_time":"24 hours daily","cards_accepted":null,"date_last_confirmed":"2016-06-03","expected_date":null,"fuel_type_code":"ELEC","id":75577,"groups_with_access_code":"Public","open_date":"2016-05-01","owner_type_code":"LG","status_code":"E","station_name":"Naples Town Office","station_phone":"207-693-6364","updated_at":"2017-02-27T18:33:59Z","geocode_status":"200-8","latitude":43.9709297,"longitude":-70.6107172,"city":"Naples","intersection_directions":null,"plus4":null,"state":"ME","street_address":"23 Village Green Ln","zip":"04055","bd_blends":null,"e85_blender_pump":null,"ev_connector_types":["J1772"],"ev_dc_fast_num":null,"ev_level1_evse_num":null,"ev_level2_evse_num":1,"ev_network":null,"ev_network_web":null,"ev_other_evse":null,"hy_status_link":null,"lpg_primary":null,"ng_fill_type_code":null,"ng_psi":null,"ng_vehicle_class":null},{"access_days_time":"24 hours daily","cards_accepted":null,"date_last_confirmed":"2017-03-03","expected_date":null,"fuel_type_code":"ELEC","id":75578,"groups_with_access_code":"Public","open_date":"2016-05-01","owner_type_code":"LG","status_code":"E","station_name":"Scarborough Municipal Building","station_phone":"207-730-4000","updated_at":"2017-03-03T18:30:13Z","geocode_status":"200-8","latitude":43.5901627,"longitude":-70.3392507,"city":"Scarborough","intersection_directions":null,"plus4":null,"state":"ME","street_address":"259 US Route 1","zip":"04074","bd_blends":null,"e85_blender_pump":null,"ev_connector_types":["J1772"],"ev_dc_fast_num":null,"ev_level1_evse_num":null,"ev_level2_evse_num":2,"ev_network":null,"ev_network_web":null,"ev_other_evse":null,"hy_status_link":null,"lpg_primary":null,"ng_fill_type_code":null,"ng_psi":null,"ng_vehicle_class":null},{"access_days_time":"Dealership business hours","cards_accepted":null,"date_last_confirmed":"2017-03-03","expected_date":null,"fuel_type_code":"ELEC","id":75579,"groups_with_access_code":"Public - Call ahead","open_date":"2016-05-01","owner_type_code":"P","status_code":"E","station_name":"Portland Volvo","station_phone":"207-883-5568","updated_at":"2017-03-03T19:42:41Z","geocode_status":"200-8","latitude":43.6128865,"longitude":-70.313534,"city":"Scarborough","intersection_directions":null,"plus4":null,"state":"ME","street_address":"9 US Route 1","zip":"04074","bd_blends":null,"e85_blender_pump":null,"ev_connector_types":["J1772"],"ev_dc_fast_num":null,"ev_level1_evse_num":null,"ev_level2_evse_num":2,"ev_network":null,"ev_network_web":null,"ev_other_evse":null,"hy_status_link":null,"lpg_primary":null,"ng_fill_type_code":null,"ng_psi":null,"ng_vehicle_class":null},{"access_days_time":"24 hours daily; for Tesla use only; for guest use only; see front desk for access","cards_accepted":null,"date_last_confirmed":"2016-06-03","expected_date":null,"fuel_type_code":"ELEC","id":75737,"groups_with_access_code":"Public","open_date":"2016-05-01","owner_type_code":"P","status_code":"E","station_name":"Fox Carlton Pond Sporting Camps and Campground - Tesla","station_phone":"207-491-5865  877-798-3752","updated_at":"2017-01-18T00:58:52Z","geocode_status":"200-8","latitude":44.8573112,"longitude":-70.37708,"city":"Phillips","intersection_directions":null,"plus4":null,"state":"ME","street_address":"35 Fox Carlton Pond Rd","zip":"04966","bd_blends":null,"e85_blender_pump":null,"ev_connector_types":["TESLA"],"ev_dc_fast_num":null,"ev_level1_evse_num":null,"ev_level2_evse_num":1,"ev_network":"Tesla","ev_network_web":"http://www.teslamotors.com/supercharger","ev_other_evse":null,"hy_status_link":null,"lpg_primary":null,"ng_fill_type_code":null,"ng_psi":null,"ng_vehicle_class":null},{"access_days_time":"24 hours daily; for Tesla use only","cards_accepted":null,"date_last_confirmed":"2016-06-03","expected_date":null,"fuel_type_code":"ELEC","id":75738,"groups_with_access_code":"Public","open_date":"2016-05-01","owner_type_code":"P","status_code":"E","station_name":"Pleasant Street Inn Bed and Breakfast - Tesla","station_phone":"207-864-5916  877-798-3752","updated_at":"2017-01-18T00:23:40Z","geocode_status":"200-9","latitude":44.973525,"longitude":-70.6464352,"city":"Rangeley","intersection_directions":null,"plus4":null,"state":"ME","street_address":"104 Pleasant St","zip":"04970","bd_blends":null,"e85_blender_pump":null,"ev_connector_types":["TESLA"],"ev_dc_fast_num":null,"ev_level1_evse_num":null,"ev_level2_evse_num":2,"ev_network":"Tesla","ev_network_web":"http://www.teslamotors.com/supercharger","ev_other_evse":null,"hy_status_link":null,"lpg_primary":null,"ng_fill_type_code":null,"ng_psi":null,"ng_vehicle_class":null},{"access_days_time":"7am-11pm daily; 24 hours daily for registered guests; free for Inn guests and conference attendees","cards_accepted":"Cash Checks A D M V","date_last_confirmed":"2017-02-01","expected_date":null,"fuel_type_code":"ELEC","id":76266,"groups_with_access_code":"Public - Call ahead","open_date":"2016-06-01","owner_type_code":"P","status_code":"E","station_name":"Maple Hill Farm Inn and Conference Center","station_phone":"207-622-2708","updated_at":"2017-02-01T20:12:25Z","geocode_status":"200-9","latitude":44.2879002,"longitude":-69.837195,"city":"Hallowell","intersection_directions":null,"plus4":null,"state":"ME","street_address":"11 Inn Rd","zip":"04347","bd_blends":null,"e85_blender_pump":null,"ev_connector_types":["J1772","TESLA","NEMA515"],"ev_dc_fast_num":null,"ev_level1_evse_num":2,"ev_level2_evse_num":4,"ev_network":"Tesla","ev_network_web":"http://www.teslamotors.com/supercharger","ev_other_evse":null,"hy_status_link":null,"lpg_primary":null,"ng_fill_type_code":null,"ng_psi":null,"ng_vehicle_class":null},{"access_days_time":"24 hours daily; EVgo network subscription and key fob required","cards_accepted":null,"date_last_confirmed":"2017-07-10","expected_date":null,"fuel_type_code":"ELEC","id":76483,"groups_with_access_code":"Public - Card key at all times","open_date":null,"owner_type_code":null,"status_code":"E","station_name":"Hannaford Market - York","station_phone":"877-455-3833","updated_at":"2017-07-10T09:54:38Z","geocode_status":"GPS","latitude":43.1521797180176,"longitude":-70.668098449707,"city":"York","intersection_directions":null,"plus4":null,"state":"ME","street_address":"5 Hannaford Dr","zip":"03909","bd_blends":null,"e85_blender_pump":null,"ev_connector_types":["CHADEMO","J1772COMBO"],"ev_dc_fast_num":2,"ev_level1_evse_num":null,"ev_level2_evse_num":null,"ev_network":"eVgo Network","ev_network_web":"https://www.evgonetwork.com/","ev_other_evse":null,"hy_status_link":null,"lpg_primary":null,"ng_fill_type_code":null,"ng_psi":null,"ng_vehicle_class":null,"ev_network_ids":{"station":["eVgoSA764"],"posts":["EVFC-NRG-032016-480-0203-C|EVFC-NRG-032016-480-0203-J"],"ports":["EVFC-NRG-032016-480-0203-C","EVFC-NRG-032016-480-0203-J"]}},{"access_days_time":"24 hours daily; EVgo network subscription and key fob required","cards_accepted":null,"date_last_confirmed":"2017-07-10","expected_date":null,"fuel_type_code":"ELEC","id":76510,"groups_with_access_code":"Public - Card key at all times","open_date":null,"owner_type_code":null,"status_code":"E","station_name":"Hannaford Market - Portland","station_phone":"877-455-3833","updated_at":"2017-07-10T09:54:37Z","geocode_status":"GPS","latitude":43.6636543273926,"longitude":-70.2683334350586,"city":"Portland","intersection_directions":null,"plus4":null,"state":"ME","street_address":"295 Forest Ave","zip":"04101","bd_blends":null,"e85_blender_pump":null,"ev_connector_types":["CHADEMO","J1772COMBO"],"ev_dc_fast_num":2,"ev_level1_evse_num":null,"ev_level2_evse_num":null,"ev_network":"eVgo Network","ev_network_web":"https://www.evgonetwork.com/","ev_other_evse":null,"hy_status_link":null,"lpg_primary":null,"ng_fill_type_code":null,"ng_psi":null,"ng_vehicle_class":null,"ev_network_ids":{"station":["eVgoSA763"],"posts":["EVFC-NRG-032016-480-0200-C|EVFC-NRG-032016-480-0200-J"],"ports":["EVFC-NRG-032016-480-0200-C","EVFC-NRG-032016-480-0200-J"]}},{"access_days_time":"24 hours daily; EVgo network subscription and key fob required","cards_accepted":null,"date_last_confirmed":"2017-07-10","expected_date":null,"fuel_type_code":"ELEC","id":76903,"groups_with_access_code":"Public - Card key at all times","open_date":null,"owner_type_code":null,"status_code":"E","station_name":"Hannaford Market - Augusta","station_phone":"877-455-3833","updated_at":"2017-07-10T09:54:42Z","geocode_status":"GPS","latitude":44.3133316040039,"longitude":-69.8122482299805,"city":"Augusta","intersection_directions":null,"plus4":null,"state":"ME","street_address":"29 Whitten Rd","zip":"04330","bd_blends":null,"e85_blender_pump":null,"ev_connector_types":["CHADEMO","J1772COMBO"],"ev_dc_fast_num":2,"ev_level1_evse_num":null,"ev_level2_evse_num":null,"ev_network":"eVgo Network","ev_network_web":"https://www.evgonetwork.com/","ev_other_evse":null,"hy_status_link":null,"lpg_primary":null,"ng_fill_type_code":null,"ng_psi":null,"ng_vehicle_class":null,"ev_network_ids":{"station":["eVgoSA777"],"posts":["EVFC-NRG-032016-480-0202-C|EVFC-NRG-032016-480-0202-J"],"ports":["EVFC-NRG-032016-480-0202-C","EVFC-NRG-032016-480-0202-J"]}},{"access_days_time":"8am-4pm M-F","cards_accepted":null,"date_last_confirmed":"2017-03-03","expected_date":null,"fuel_type_code":"ELEC","id":76910,"groups_with_access_code":"Public","open_date":"2013-01-01","owner_type_code":"P","status_code":"E","station_name":"ReVision Energy","station_phone":"207-589-4171","updated_at":"2017-03-03T18:52:56Z","geocode_status":"200-8","latitude":44.3985359,"longitude":-69.3193422,"city":"Liberty","intersection_directions":null,"plus4":null,"state":"ME","street_address":"91 W Main St","zip":"04949","bd_blends":null,"e85_blender_pump":null,"ev_connector_types":["J1772"],"ev_dc_fast_num":null,"ev_level1_evse_num":null,"ev_level2_evse_num":1,"ev_network":null,"ev_network_web":null,"ev_other_evse":null,"hy_status_link":null,"lpg_primary":null,"ng_fill_type_code":null,"ng_psi":null,"ng_vehicle_class":null},{"access_days_time":"7am-10pm daily","cards_accepted":null,"date_last_confirmed":"2017-03-03","expected_date":null,"fuel_type_code":"ELEC","id":76911,"groups_with_access_code":"Public","open_date":"2016-02-29","owner_type_code":"P","status_code":"E","station_name":"Hannaford Market - Camden","station_phone":"207-236-8577","updated_at":"2017-03-03T19:53:28Z","geocode_status":"200-8","latitude":44.2008724,"longitude":-69.0791299,"city":"Camden","intersection_directions":null,"plus4":null,"state":"ME","street_address":"145 Elm St","zip":"04843","bd_blends":null,"e85_blender_pump":null,"ev_connector_types":["J1772"],"ev_dc_fast_num":null,"ev_level1_evse_num":null,"ev_level2_evse_num":1,"ev_network":null,"ev_network_web":null,"ev_other_evse":null,"hy_status_link":null,"lpg_primary":null,"ng_fill_type_code":null,"ng_psi":null,"ng_vehicle_class":null},{"access_days_time":"24 hours daily","cards_accepted":null,"date_last_confirmed":"2017-03-03","expected_date":null,"fuel_type_code":"ELEC","id":77395,"groups_with_access_code":"Public","open_date":"2016-01-10","owner_type_code":"LG","status_code":"E","station_name":"Yarmouth Town Hall - Community Services Building","station_phone":"207-846-2406","updated_at":"2017-03-03T19:44:20Z","geocode_status":"GPS","latitude":43.799685,"longitude":-70.18859,"city":"Yarmouth","intersection_directions":null,"plus4":null,"state":"ME","street_address":"200 Main St","zip":"04096","bd_blends":null,"e85_blender_pump":null,"ev_connector_types":["J1772"],"ev_dc_fast_num":null,"ev_level1_evse_num":null,"ev_level2_evse_num":1,"ev_network":null,"ev_network_web":null,"ev_other_evse":null,"hy_status_link":null,"lpg_primary":null,"ng_fill_type_code":null,"ng_psi":null,"ng_vehicle_class":null},{"access_days_time":"24 hours daily","cards_accepted":null,"date_last_confirmed":"2017-03-03","expected_date":null,"fuel_type_code":"ELEC","id":77404,"groups_with_access_code":"Public","open_date":"2016-06-01","owner_type_code":"LG","status_code":"E","station_name":"South Paris Police Station","station_phone":"207-743-2501","updated_at":"2017-03-03T19:44:21Z","geocode_status":"GPS","latitude":44.223939,"longitude":-70.514496,"city":"South Paris","intersection_directions":null,"plus4":null,"state":"ME","street_address":"13 Church St","zip":"04281","bd_blends":null,"e85_blender_pump":null,"ev_connector_types":["J1772"],"ev_dc_fast_num":null,"ev_level1_evse_num":null,"ev_level2_evse_num":1,"ev_network":null,"ev_network_web":null,"ev_other_evse":null,"hy_status_link":null,"lpg_primary":null,"ng_fill_type_code":null,"ng_psi":null,"ng_vehicle_class":null},{"access_days_time":"8:30am-12am daily; accepts donations","cards_accepted":null,"date_last_confirmed":"2017-03-03","expected_date":null,"fuel_type_code":"ELEC","id":77950,"groups_with_access_code":"Public","open_date":"2016-08-01","owner_type_code":"P","status_code":"E","station_name":"Insource Renewables Warehouse","station_phone":"207-659-1054","updated_at":"2017-03-03T18:35:57Z","geocode_status":"200-8","latitude":44.7875074,"longitude":-69.380315,"city":"Pittsfield","intersection_directions":"Approximately 1 mile from Exit 150 on I-95; corner of Detroit Ave and N Main St","plus4":null,"state":"ME","street_address":"203 N Main St","zip":"04967","bd_blends":null,"e85_blender_pump":null,"ev_connector_types":["J1772"],"ev_dc_fast_num":null,"ev_level1_evse_num":null,"ev_level2_evse_num":2,"ev_network":null,"ev_network_web":null,"ev_other_evse":null,"hy_status_link":null,"lpg_primary":null,"ng_fill_type_code":null,"ng_psi":null,"ng_vehicle_class":null},{"access_days_time":"24 hours daily; see front desk for access","cards_accepted":null,"date_last_confirmed":"2017-03-03","expected_date":null,"fuel_type_code":"ELEC","id":77970,"groups_with_access_code":"Public","open_date":"2016-08-15","owner_type_code":"P","status_code":"E","station_name":"Seawall Motel","station_phone":"800-248-9250  877-798-3752","updated_at":"2017-03-03T18:51:12Z","geocode_status":"200-8","latitude":44.2445603,"longitude":-68.2988501,"city":"Southwest Harbor","intersection_directions":null,"plus4":null,"state":"ME","street_address":"566 Seawall Rd","zip":"04679","bd_blends":null,"e85_blender_pump":null,"ev_connector_types":["TESLA","J1772"],"ev_dc_fast_num":null,"ev_level1_evse_num":null,"ev_level2_evse_num":3,"ev_network":"Tesla","ev_network_web":"http://www.teslamotors.com/supercharger","ev_other_evse":null,"hy_status_link":null,"lpg_primary":null,"ng_fill_type_code":null,"ng_psi":null,"ng_vehicle_class":null},{"access_days_time":"24 hours daily; for Tesla use only","cards_accepted":null,"date_last_confirmed":"2016-09-02","expected_date":null,"fuel_type_code":"ELEC","id":77971,"groups_with_access_code":"Public","open_date":"2016-08-15","owner_type_code":"P","status_code":"E","station_name":"The Lodge at Camden Hills - Tesla","station_phone":"207-236-8478  877-798-3752","updated_at":"2017-01-18T01:44:59Z","geocode_status":"200-8","latitude":44.22426,"longitude":-69.0520766,"city":"Camden","intersection_directions":null,"plus4":null,"state":"ME","street_address":"186 Belfast Rd","zip":"04843","bd_blends":null,"e85_blender_pump":null,"ev_connector_types":["TESLA"],"ev_dc_fast_num":null,"ev_level1_evse_num":null,"ev_level2_evse_num":1,"ev_network":"Tesla","ev_network_web":"http://www.teslamotors.com/supercharger","ev_other_evse":null,"hy_status_link":null,"lpg_primary":null,"ng_fill_type_code":null,"ng_psi":null,"ng_vehicle_class":null},{"access_days_time":"24 hours daily","cards_accepted":null,"date_last_confirmed":"2017-03-03","expected_date":null,"fuel_type_code":"ELEC","id":78343,"groups_with_access_code":"Public","open_date":"2016-07-10","owner_type_code":"P","status_code":"E","station_name":"St. Joseph's College","station_phone":"207-893-7977","updated_at":"2017-03-03T19:55:17Z","geocode_status":"GPS","latitude":43.827491,"longitude":-70.482252,"city":"Standish","intersection_directions":null,"plus4":null,"state":"ME","street_address":"278 Whites Bridge Rd","zip":"04084","bd_blends":null,"e85_blender_pump":null,"ev_connector_types":["J1772","NEMA515"],"ev_dc_fast_num":null,"ev_level1_evse_num":1,"ev_level2_evse_num":1,"ev_network":null,"ev_network_web":null,"ev_other_evse":null,"hy_status_link":null,"lpg_primary":null,"ng_fill_type_code":null,"ng_psi":null,"ng_vehicle_class":null},{"access_days_time":"24 hours daily","cards_accepted":null,"date_last_confirmed":"2017-06-02","expected_date":null,"fuel_type_code":"ELEC","id":78344,"groups_with_access_code":"Public","open_date":"2014-10-01","owner_type_code":"P","status_code":"E","station_name":"Colby College","station_phone":"207-859-5372","updated_at":"2017-06-02T16:15:37Z","geocode_status":"GPS","latitude":44.562605,"longitude":-69.658894,"city":"Waterville","intersection_directions":"Located in the Admissions parking lot","plus4":null,"state":"ME","street_address":"4800 Mayflower Hill Dr","zip":"04901","bd_blends":null,"e85_blender_pump":null,"ev_connector_types":["J1772"],"ev_dc_fast_num":null,"ev_level1_evse_num":null,"ev_level2_evse_num":1,"ev_network":null,"ev_network_web":null,"ev_other_evse":null,"hy_status_link":null,"lpg_primary":null,"ng_fill_type_code":null,"ng_psi":null,"ng_vehicle_class":null},{"access_days_time":"24 hours daily","cards_accepted":null,"date_last_confirmed":"2017-03-03","expected_date":null,"fuel_type_code":"ELEC","id":78345,"groups_with_access_code":"Public","open_date":"2016-04-15","owner_type_code":"LG","status_code":"E","station_name":"Kennebunkport Fire Department","station_phone":"207-967-2114","updated_at":"2017-03-03T18:40:37Z","geocode_status":"GPS","latitude":43.366883,"longitude":-70.47525,"city":"Kennebunkport","intersection_directions":null,"plus4":null,"state":"ME","street_address":"32 North St","zip":"04046","bd_blends":null,"e85_blender_pump":null,"ev_connector_types":["J1772"],"ev_dc_fast_num":null,"ev_level1_evse_num":null,"ev_level2_evse_num":1,"ev_network":null,"ev_network_web":null,"ev_other_evse":null,"hy_status_link":null,"lpg_primary":null,"ng_fill_type_code":null,"ng_psi":null,"ng_vehicle_class":null},{"access_days_time":"24 hours daily","cards_accepted":null,"date_last_confirmed":"2016-10-04","expected_date":null,"fuel_type_code":"ELEC","id":78346,"groups_with_access_code":"Public","open_date":"2016-08-15","owner_type_code":"P","status_code":"E","station_name":"Hannaford Corporate Office","station_phone":"207-885-2594","updated_at":"2017-02-27T19:08:39Z","geocode_status":"GPS","latitude":43.5971168,"longitude":-70.2982006,"city":"Scarborough","intersection_directions":null,"plus4":null,"state":"ME","street_address":"145 Pleasant Hill Rd","zip":"04074","bd_blends":null,"e85_blender_pump":null,"ev_connector_types":["J1772"],"ev_dc_fast_num":null,"ev_level1_evse_num":null,"ev_level2_evse_num":2,"ev_network":null,"ev_network_web":null,"ev_other_evse":null,"hy_status_link":null,"lpg_primary":null,"ng_fill_type_code":null,"ng_psi":null,"ng_vehicle_class":null},{"access_days_time":"24 hours daily","cards_accepted":null,"date_last_confirmed":"2017-03-03","expected_date":null,"fuel_type_code":"ELEC","id":78347,"groups_with_access_code":"Public","open_date":"2015-10-01","owner_type_code":"P","status_code":"E","station_name":"Dunkin Donuts ","station_phone":"207-989-7521","updated_at":"2017-03-03T18:29:51Z","geocode_status":"GPS","latitude":44.785297,"longitude":-68.752991,"city":"Brewer","intersection_directions":null,"plus4":null,"state":"ME","street_address":"271 State St","zip":"04412","bd_blends":null,"e85_blender_pump":null,"ev_connector_types":["J1772"],"ev_dc_fast_num":null,"ev_level1_evse_num":null,"ev_level2_evse_num":1,"ev_network":null,"ev_network_web":null,"ev_other_evse":null,"hy_status_link":null,"lpg_primary":null,"ng_fill_type_code":null,"ng_psi":null,"ng_vehicle_class":null},{"access_days_time":"24 hours daily","cards_accepted":null,"date_last_confirmed":"2017-03-03","expected_date":null,"fuel_type_code":"ELEC","id":78349,"groups_with_access_code":"Public","open_date":"2016-08-15","owner_type_code":"SG","status_code":"E","station_name":"Baxter State Park","station_phone":"207-723-5140","updated_at":"2017-03-03T19:49:31Z","geocode_status":"GPS","latitude":45.656775,"longitude":-68.686907,"city":"Millinocket","intersection_directions":"Located in Baxter State Park Headquarters parking lot","plus4":null,"state":"ME","street_address":"64 Balsam Dr","zip":"04462","bd_blends":null,"e85_blender_pump":null,"ev_connector_types":["J1772"],"ev_dc_fast_num":null,"ev_level1_evse_num":null,"ev_level2_evse_num":1,"ev_network":null,"ev_network_web":null,"ev_other_evse":null,"hy_status_link":null,"lpg_primary":null,"ng_fill_type_code":null,"ng_psi":null,"ng_vehicle_class":null},{"access_days_time":"8am-6pm daily","cards_accepted":null,"date_last_confirmed":"2017-03-03","expected_date":null,"fuel_type_code":"ELEC","id":78350,"groups_with_access_code":"Public","open_date":"2016-06-01","owner_type_code":"P","status_code":"E","station_name":"Wilbur's of Maine Chocolate Confections","station_phone":"207-865-4071 ","updated_at":"2017-03-03T18:32:43Z","geocode_status":"GPS","latitude":43.848238,"longitude":-70.11331,"city":"Freeport","intersection_directions":null,"plus4":null,"state":"ME","street_address":"174 Lower Main St","zip":"04032","bd_blends":null,"e85_blender_pump":null,"ev_connector_types":["J1772"],"ev_dc_fast_num":null,"ev_level1_evse_num":null,"ev_level2_evse_num":1,"ev_network":null,"ev_network_web":null,"ev_other_evse":null,"hy_status_link":null,"lpg_primary":null,"ng_fill_type_code":null,"ng_psi":null,"ng_vehicle_class":null},{"access_days_time":"24 hours daily; for Tesla use only; for guest use with reservation only; see front desk for access","cards_accepted":null,"date_last_confirmed":"2016-10-04","expected_date":null,"fuel_type_code":"ELEC","id":78468,"groups_with_access_code":"Public - Call ahead","open_date":"2016-09-01","owner_type_code":"P","status_code":"E","station_name":"Hawthorn Inn - Tesla","station_phone":"207-236-8842  877-798-3752","updated_at":"2017-01-18T01:06:58Z","geocode_status":"200-8","latitude":44.2126626,"longitude":-69.0633804,"city":"Camden","intersection_directions":null,"plus4":null,"state":"ME","street_address":"9 High St","zip":"04843","bd_blends":null,"e85_blender_pump":null,"ev_connector_types":["TESLA"],"ev_dc_fast_num":null,"ev_level1_evse_num":null,"ev_level2_evse_num":1,"ev_network":"Tesla","ev_network_web":"http://www.teslamotors.com/supercharger","ev_other_evse":null,"hy_status_link":null,"lpg_primary":null,"ng_fill_type_code":null,"ng_psi":null,"ng_vehicle_class":null},{"access_days_time":"24 hours daily; for Tesla use only","cards_accepted":null,"date_last_confirmed":"2016-10-04","expected_date":null,"fuel_type_code":"ELEC","id":78519,"groups_with_access_code":"Public","open_date":"2016-09-01","owner_type_code":"P","status_code":"E","station_name":"Ruby Tuesday - Tesla","station_phone":"877-798-3752","updated_at":"2017-01-18T00:38:14Z","geocode_status":"GPS","latitude":44.775798,"longitude":-68.734559,"city":"Brewer","intersection_directions":"I-395 Exit 6A; Located in southwest parking lot","plus4":null,"state":"ME","street_address":"5 Walton Dr","zip":"04412","bd_blends":null,"e85_blender_pump":null,"ev_connector_types":["TESLA"],"ev_dc_fast_num":8,"ev_level1_evse_num":null,"ev_level2_evse_num":null,"ev_network":null,"ev_network_web":null,"ev_other_evse":null,"hy_status_link":null,"lpg_primary":null,"ng_fill_type_code":null,"ng_psi":null,"ng_vehicle_class":null},{"access_days_time":"6am-10pm M-F, 8am-10pm Sat","cards_accepted":null,"date_last_confirmed":"2017-03-03","expected_date":null,"fuel_type_code":"ELEC","id":79172,"groups_with_access_code":"Public","open_date":"2014-10-01","owner_type_code":"LG","status_code":"E","station_name":"Elm Street Parking Garage","station_phone":"207-871-1106","updated_at":"2017-03-03T18:35:38Z","geocode_status":"GPS","latitude":43.658352,"longitude":-70.2596533,"city":"Portland","intersection_directions":null,"plus4":null,"state":"ME","street_address":"21 Elm St","zip":"04101","bd_blends":null,"e85_blender_pump":null,"ev_connector_types":["J1772"],"ev_dc_fast_num":null,"ev_level1_evse_num":null,"ev_level2_evse_num":1,"ev_network":null,"ev_network_web":null,"ev_other_evse":null,"hy_status_link":null,"lpg_primary":null,"ng_fill_type_code":null,"ng_psi":null,"ng_vehicle_class":null},{"access_days_time":"24 hours daily","cards_accepted":null,"date_last_confirmed":"2017-03-03","expected_date":null,"fuel_type_code":"ELEC","id":79245,"groups_with_access_code":"Public","open_date":"2016-11-15","owner_type_code":"P","status_code":"E","station_name":"The Nature Conservancy","station_phone":"207-725-9505","updated_at":"2017-03-03T19:54:16Z","geocode_status":"GPS","latitude":43.918764,"longitude":-69.967066,"city":"Brunswick","intersection_directions":"Cabot Street and Main Street","plus4":null,"state":"ME","street_address":"14 Maine St","zip":"04011","bd_blends":null,"e85_blender_pump":null,"ev_connector_types":["J1772"],"ev_dc_fast_num":null,"ev_level1_evse_num":null,"ev_level2_evse_num":2,"ev_network":null,"ev_network_web":null,"ev_other_evse":null,"hy_status_link":null,"lpg_primary":null,"ng_fill_type_code":null,"ng_psi":null,"ng_vehicle_class":null},{"access_days_time":"24 hours daily","cards_accepted":"A D M V","date_last_confirmed":"2017-03-03","expected_date":null,"fuel_type_code":"ELEC","id":79347,"groups_with_access_code":"Public - Credit card at all times","open_date":"2016-10-01","owner_type_code":"P","status_code":"E","station_name":"University of Maine - Advanced Structures and Composites Center Parking Lot","station_phone":"207-581-4047","updated_at":"2017-03-03T19:47:39Z","geocode_status":"200-8","latitude":44.9016845,"longitude":-68.6651363,"city":"Orono","intersection_directions":null,"plus4":null,"state":"ME","street_address":"35 Flagstaff Rd","zip":"04469","bd_blends":null,"e85_blender_pump":null,"ev_connector_types":["J1772"],"ev_dc_fast_num":null,"ev_level1_evse_num":null,"ev_level2_evse_num":1,"ev_network":null,"ev_network_web":null,"ev_other_evse":null,"hy_status_link":null,"lpg_primary":null,"ng_fill_type_code":null,"ng_psi":null,"ng_vehicle_class":null},{"access_days_time":"24 hours daily","cards_accepted":null,"date_last_confirmed":"2017-03-03","expected_date":null,"fuel_type_code":"ELEC","id":79818,"groups_with_access_code":"Public","open_date":"2016-06-30","owner_type_code":"P","status_code":"E","station_name":"Congregational Church in Cumberland","station_phone":"207-829-3419","updated_at":"2017-03-03T19:51:15Z","geocode_status":"GPS","latitude":43.796019,"longitude":-70.259039,"city":"Cumberland","intersection_directions":"Located to the left of the main entrance to the Parish Hall in the parking lot","plus4":null,"state":"ME","street_address":"282 Main St","zip":"04021","bd_blends":null,"e85_blender_pump":null,"ev_connector_types":["J1772"],"ev_dc_fast_num":null,"ev_level1_evse_num":null,"ev_level2_evse_num":2,"ev_network":null,"ev_network_web":null,"ev_other_evse":null,"hy_status_link":null,"lpg_primary":null,"ng_fill_type_code":null,"ng_psi":null,"ng_vehicle_class":null},{"access_days_time":"24 hours daily; EVgo network subscription and key fob required","cards_accepted":null,"date_last_confirmed":"2017-07-10","expected_date":null,"fuel_type_code":"ELEC","id":80845,"groups_with_access_code":"Public - Card key at all times","open_date":null,"owner_type_code":null,"status_code":"E","station_name":"Hannaford Market - Maine Mall","station_phone":"877-455-3833","updated_at":"2017-07-10T09:54:42Z","geocode_status":"GPS","latitude":43.6350555419922,"longitude":-70.3284912109375,"city":"South Portland","intersection_directions":null,"plus4":null,"state":"ME","street_address":"415 Philbrook Ave","zip":"04106","bd_blends":null,"e85_blender_pump":null,"ev_connector_types":["CHADEMO","J1772COMBO"],"ev_dc_fast_num":2,"ev_level1_evse_num":null,"ev_level2_evse_num":null,"ev_network":"eVgo Network","ev_network_web":"https://www.evgonetwork.com/","ev_other_evse":null,"hy_status_link":null,"lpg_primary":null,"ng_fill_type_code":null,"ng_psi":null,"ng_vehicle_class":null,"ev_network_ids":{"station":["eVgoSA778"],"posts":["EVFC-NRG-032016-480-0204-C|EVFC-NRG-032016-480-0204-J"],"ports":["EVFC-NRG-032016-480-0204-C","EVFC-NRG-032016-480-0204-J"]}},{"access_days_time":"24 hours daily","cards_accepted":null,"date_last_confirmed":"2017-02-01","expected_date":null,"fuel_type_code":"ELEC","id":81120,"groups_with_access_code":"Public","open_date":"2017-01-24","owner_type_code":"P","status_code":"E","station_name":"Insource Renewables","station_phone":"207-487-1005","updated_at":"2017-02-01T20:05:31Z","geocode_status":"200-8","latitude":44.7831142,"longitude":-69.3803677,"city":"Pittsfield","intersection_directions":null,"plus4":null,"state":"ME","street_address":"113 N Lancey St","zip":"04967","bd_blends":null,"e85_blender_pump":null,"ev_connector_types":["J1772"],"ev_dc_fast_num":null,"ev_level1_evse_num":null,"ev_level2_evse_num":2,"ev_network":null,"ev_network_web":null,"ev_other_evse":null,"hy_status_link":null,"lpg_primary":null,"ng_fill_type_code":null,"ng_psi":null,"ng_vehicle_class":null},{"access_days_time":"7am-11pm daily","cards_accepted":"Cash A D M V","date_last_confirmed":"2017-04-06","expected_date":null,"fuel_type_code":"ELEC","id":81710,"groups_with_access_code":"Public","open_date":"2017-03-01","owner_type_code":"P","status_code":"E","station_name":"Meadowmere Resort","station_phone":"207-646-9661","updated_at":"2017-04-06T14:34:11Z","geocode_status":"200-8","latitude":43.2429442,"longitude":-70.6017722,"city":"Ogunquit","intersection_directions":null,"plus4":null,"state":"ME","street_address":"74 Main St","zip":"03907","bd_blends":null,"e85_blender_pump":null,"ev_connector_types":["J1772"],"ev_dc_fast_num":null,"ev_level1_evse_num":null,"ev_level2_evse_num":2,"ev_network":null,"ev_network_web":null,"ev_other_evse":null,"hy_status_link":null,"lpg_primary":null,"ng_fill_type_code":null,"ng_psi":null,"ng_vehicle_class":null},{"access_days_time":"24 hours daily; for Tesla use only; see front desk for access","cards_accepted":null,"date_last_confirmed":"2017-04-06","expected_date":null,"fuel_type_code":"ELEC","id":81858,"groups_with_access_code":"Public","open_date":"2017-03-01","owner_type_code":"P","status_code":"E","station_name":"Haven by the Sea - Tesla","station_phone":"207-646-4194  877-798-3752","updated_at":"2017-04-06T14:31:15Z","geocode_status":"200-9","latitude":43.3011208,"longitude":-70.5688857,"city":"Wells","intersection_directions":null,"plus4":null,"state":"ME","street_address":"59 Church St","zip":"04090","bd_blends":null,"e85_blender_pump":null,"ev_connector_types":["TESLA"],"ev_dc_fast_num":null,"ev_level1_evse_num":null,"ev_level2_evse_num":2,"ev_network":"Tesla","ev_network_web":"http://www.teslamotors.com/supercharger","ev_other_evse":null,"hy_status_link":null,"lpg_primary":null,"ng_fill_type_code":null,"ng_psi":null,"ng_vehicle_class":null},{"access_days_time":"24 hours daily; for Tesla use only; see front desk for access","cards_accepted":null,"date_last_confirmed":"2017-04-06","expected_date":null,"fuel_type_code":"ELEC","id":81859,"groups_with_access_code":"Public","open_date":"2017-03-01","owner_type_code":"P","status_code":"E","station_name":"Ocean Point Inn and Resort - Tesla","station_phone":"207-633-4200  877-798-3752","updated_at":"2017-04-06T14:14:35Z","geocode_status":"200-9","latitude":43.8188605,"longitude":-69.604056,"city":"East Boothbay","intersection_directions":null,"plus4":null,"state":"ME","street_address":"191 Shore Rd","zip":"04544","bd_blends":null,"e85_blender_pump":null,"ev_connector_types":["TESLA"],"ev_dc_fast_num":null,"ev_level1_evse_num":null,"ev_level2_evse_num":2,"ev_network":"Tesla","ev_network_web":"http://www.teslamotors.com/supercharger","ev_other_evse":null,"hy_status_link":null,"lpg_primary":null,"ng_fill_type_code":null,"ng_psi":null,"ng_vehicle_class":null},{"access_days_time":"24 hours daily; for Tesla use only; for guest use only","cards_accepted":null,"date_last_confirmed":"2017-04-06","expected_date":null,"fuel_type_code":"ELEC","id":81860,"groups_with_access_code":"Public - Call ahead","open_date":"2017-03-01","owner_type_code":"P","status_code":"E","station_name":"The Oxford House Inn - Tesla","station_phone":"800-261-7206  877-798-3752","updated_at":"2017-04-06T14:18:14Z","geocode_status":"200-8","latitude":44.0163142,"longitude":-70.9819004,"city":"Fryeburg","intersection_directions":null,"plus4":null,"state":"ME","street_address":"548 Main St","zip":"04037","bd_blends":null,"e85_blender_pump":null,"ev_connector_types":["TESLA"],"ev_dc_fast_num":null,"ev_level1_evse_num":null,"ev_level2_evse_num":1,"ev_network":"Tesla","ev_network_web":"http://www.teslamotors.com/supercharger","ev_other_evse":null,"hy_status_link":null,"lpg_primary":null,"ng_fill_type_code":null,"ng_psi":null,"ng_vehicle_class":null},{"access_days_time":"Garage business hours; must have Liberty Hydra application for access","cards_accepted":null,"date_last_confirmed":"2017-07-06","expected_date":null,"fuel_type_code":"ELEC","id":85683,"groups_with_access_code":"Public","open_date":"2017-06-01","owner_type_code":"LG","status_code":"E","station_name":"Sewall Street Garage","station_phone":"207-491-2146","updated_at":"2017-07-06T17:20:16Z","geocode_status":"GPS","latitude":44.308179,"longitude":-69.78326,"city":"Augusta","intersection_directions":"Between Wade St & Capitol St","plus4":null,"state":"ME","street_address":"Sewall St","zip":"04330","bd_blends":null,"e85_blender_pump":null,"ev_connector_types":["J1772"],"ev_dc_fast_num":null,"ev_level1_evse_num":null,"ev_level2_evse_num":2,"ev_network":null,"ev_network_web":null,"ev_other_evse":null,"hy_status_link":null,"lpg_primary":null,"ng_fill_type_code":null,"ng_psi":null,"ng_vehicle_class":null}]}
